{
"type": "FeatureCollection",
"name": "stations",
"crs": { "type": "name", "properties": { "name": "urn:ogc:def:crs:OGC:1.3:CRS84" } },
"features": [
{ "type": "Feature", "properties": { "name": "ІВАНЕ-ПУСТЕ", "id": 1 }, "geometry": { "type": "Point", "coordinates": [ 26.1706387, 48.6455487 ] } },
{ "type": "Feature", "properties": { "name": "ІВАНИЧІ", "id": 2 }, "geometry": { "type": "Point", "coordinates": [ 24.367958, 50.6379607 ] } },
{ "type": "Feature", "properties": { "name": "ІВАНО-ФРАНКІВСЬК", "id": 3 }, "geometry": { "type": "Point", "coordinates": [ 24.7238535, 48.9254253 ] } },
{ "type": "Feature", "properties": { "name": "ІГРЕНЬ", "id": 4 }, "geometry": { "type": "Point", "coordinates": [ 35.1887445, 48.4729628 ] } },
{ "type": "Feature", "properties": { "name": "ІЗМАЇЛ", "id": 5 }, "geometry": { "type": "Point", "coordinates": [ 28.8121035, 45.3599811 ] } },
{ "type": "Feature", "properties": { "name": "ІНГУЛЕЦЬ", "id": 6 }, "geometry": { "type": "Point", "coordinates": [ 33.1424107, 47.6796019 ] } },
{ "type": "Feature", "properties": { "name": "ІНДУСТРІАЛЬНА", "id": 7 }, "geometry": { "type": "Point", "coordinates": [ 36.3980146, 49.9465931 ] } },
{ "type": "Feature", "properties": { "name": "ІРША", "id": 8 }, "geometry": { "type": "Point", "coordinates": [ 29.4517148, 50.7210593 ] } },
{ "type": "Feature", "properties": { "name": "ІЧНЯ", "id": 9 }, "geometry": { "type": "Point", "coordinates": [ 32.408154, 50.8421945 ] } },
{ "type": "Feature", "properties": { "name": "АВГУСТІВСЬКИЙ", "id": 10 }, "geometry": { "type": "Point", "coordinates": [ 32.3689624, 50.7790361 ] } },
{ "type": "Feature", "properties": { "name": "АВДІЇВКА", "id": 11 }, "geometry": { "type": "Point", "coordinates": [ 37.7333775, 48.1490678 ] } },
{ "type": "Feature", "properties": { "name": "АВИАЦИОННАЯ", "id": 12 }, "geometry": { "type": "Point", "coordinates": [ 37.8358311, 55.4224224 ] } },
{ "type": "Feature", "properties": { "name": "АПОСТОЛОВЕ", "id": 13 }, "geometry": { "type": "Point", "coordinates": [ 33.6944452, 47.6586607 ] } },
{ "type": "Feature", "properties": { "name": "АРОМАТНА", "id": 14 }, "geometry": { "type": "Point", "coordinates": [ 35.886705, 48.6275055 ] } },
{ "type": "Feature", "properties": { "name": "АРЦИЗ", "id": 15 }, "geometry": { "type": "Point", "coordinates": [ 29.4201956, 45.9970579 ] } },
{ "type": "Feature", "properties": { "name": "БІЛА КРИНИЦЯ", "id": 16 }, "geometry": { "type": "Point", "coordinates": [ 33.1961537, 47.3514861 ] } },
{ "type": "Feature", "properties": { "name": "БІЛОБОЖНИЦЯ", "id": 17 }, "geometry": { "type": "Point", "coordinates": [ 25.6871364, 49.0396557 ] } },
{ "type": "Feature", "properties": { "name": "БІЛОКОРОВИЧІ", "id": 18 }, "geometry": { "type": "Point", "coordinates": [ 28.0512902, 51.1174776 ] } },
{ "type": "Feature", "properties": { "name": "БІЛЯЇВКА", "id": 19 }, "geometry": { "type": "Point", "coordinates": [ 36.306698, 49.2639059 ] } },
{ "type": "Feature", "properties": { "name": "БАЗАИХА", "id": 20 }, "geometry": { "type": "Point", "coordinates": [ 93.0654672, 56.0220954 ] } },
{ "type": "Feature", "properties": { "name": "БАЛІВКА", "id": 21 }, "geometry": { "type": "Point", "coordinates": [ 34.8404162, 48.5935117 ] } },
{ "type": "Feature", "properties": { "name": "БАЛАКЛІЯ", "id": 22 }, "geometry": { "type": "Point", "coordinates": [ 36.861936, 49.46766 ] } },
{ "type": "Feature", "properties": { "name": "БАЛОВНЕ", "id": 23 }, "geometry": { "type": "Point", "coordinates": [ 31.9301163, 47.0931231 ] } },
{ "type": "Feature", "properties": { "name": "БАЛТА", "id": 24 }, "geometry": { "type": "Point", "coordinates": [ 29.6249684, 47.8743769 ] } },
{ "type": "Feature", "properties": { "name": "БАНДУРКА", "id": 25 }, "geometry": { "type": "Point", "coordinates": [ 31.0339863, 48.1243337 ] } },
{ "type": "Feature", "properties": { "name": "БАНТИШЕВЕ", "id": 26 }, "geometry": { "type": "Point", "coordinates": [ 37.2701511, 48.859831 ] } },
{ "type": "Feature", "properties": { "name": "БАРАНОВИЧИ-ЦЕНТРАЛЬНЫЕ", "id": 27 }, "geometry": { "type": "Point", "coordinates": [ 25.9935383, 53.1321512 ] } },
{ "type": "Feature", "properties": { "name": "БАРВІНКОВЕ", "id": 28 }, "geometry": { "type": "Point", "coordinates": [ 37.0205585, 48.8957183 ] } },
{ "type": "Feature", "properties": { "name": "БАСИ", "id": 29 }, "geometry": { "type": "Point", "coordinates": [ 34.8866587, 50.862067 ] } },
{ "type": "Feature", "properties": { "name": "БАТАРЕЙНАЯ", "id": 30 }, "geometry": { "type": "Point", "coordinates": [ 104.1366411, 52.3871762 ] } },
{ "type": "Feature", "properties": { "name": "БАТУРИНСЬКА", "id": 31 }, "geometry": { "type": "Point", "coordinates": [ 33.4852258, 47.8719948 ] } },
{ "type": "Feature", "properties": { "name": "БАТЬОВО", "id": 32 }, "geometry": { "type": "Point", "coordinates": [ 22.385947, 48.3614679 ] } },
{ "type": "Feature", "properties": { "name": "БАХМАЧ-ГОМЕЛЬСЬКИЙ", "id": 33 }, "geometry": { "type": "Point", "coordinates": [ 32.8183887, 51.1785044 ] } },
{ "type": "Feature", "properties": { "name": "БАХМАЧ-ПАСАЖИРСЬКИЙ", "id": 34 }, "geometry": { "type": "Point", "coordinates": [ 32.8411486, 51.1879235 ] } },
{ "type": "Feature", "properties": { "name": "БЕРДЯНСЬК", "id": 35 }, "geometry": { "type": "Point", "coordinates": [ 36.8037117, 46.7509537 ] } },
{ "type": "Feature", "properties": { "name": "БЕРЕГОВА", "id": 36 }, "geometry": { "type": "Point", "coordinates": [ 31.0439237, 46.6322429 ] } },
{ "type": "Feature", "properties": { "name": "БЕРЕГОМЕТ", "id": 37 }, "geometry": { "type": "Point", "coordinates": [ 25.3470559, 48.1756816 ] } },
{ "type": "Feature", "properties": { "name": "БЕРЕЗАНЬ", "id": 38 }, "geometry": { "type": "Point", "coordinates": [ 31.501923, 50.3280747 ] } },
{ "type": "Feature", "properties": { "name": "БИКЛЯНЬ", "id": 39 }, "geometry": { "type": "Point", "coordinates": [ 51.9707057, 55.5913571 ] } },
{ "type": "Feature", "properties": { "name": "БЛАКИТНЕ", "id": 40 }, "geometry": { "type": "Point", "coordinates": [ 33.4407618, 47.4093065 ] } },
{ "type": "Feature", "properties": { "name": "БОБРОВИЦЯ", "id": 41 }, "geometry": { "type": "Point", "coordinates": [ 31.3714076, 50.7635688 ] } },
{ "type": "Feature", "properties": { "name": "БОБРУЙСК", "id": 42 }, "geometry": { "type": "Point", "coordinates": [ 29.1951358, 53.1376319 ] } },
{ "type": "Feature", "properties": { "name": "БОГОДУХІВ", "id": 43 }, "geometry": { "type": "Point", "coordinates": [ 35.4899412, 50.1567105 ] } },
{ "type": "Feature", "properties": { "name": "БОГУСЛАВСЬКИЙ", "id": 44 }, "geometry": { "type": "Point", "coordinates": [ 36.0278711, 48.4440402 ] } },
{ "type": "Feature", "properties": { "name": "БОЛЕХІВ", "id": 45 }, "geometry": { "type": "Point", "coordinates": [ 23.8721513, 49.0632275 ] } },
{ "type": "Feature", "properties": { "name": "БОРИСОВ", "id": 46 }, "geometry": { "type": "Point", "coordinates": [ 28.5310893, 54.2207538 ] } },
{ "type": "Feature", "properties": { "name": "БОРИСПІЛЬ", "id": 47 }, "geometry": { "type": "Point", "coordinates": [ 30.9444786, 50.3770408 ] } },
{ "type": "Feature", "properties": { "name": "БОРЩІВ", "id": 48 }, "geometry": { "type": "Point", "coordinates": [ 26.0593509, 48.8043818 ] } },
{ "type": "Feature", "properties": { "name": "БРАТСК", "id": 49 }, "geometry": { "type": "Point", "coordinates": [ 101.5450948, 56.122209 ] } },
{ "type": "Feature", "properties": { "name": "БРОВАРИ", "id": 50 }, "geometry": { "type": "Point", "coordinates": [ 30.8137269, 50.5143973 ] } },
{ "type": "Feature", "properties": { "name": "БРОДИ", "id": 51 }, "geometry": { "type": "Point", "coordinates": [ 25.1407983, 50.0741054 ] } },
{ "type": "Feature", "properties": { "name": "БУГАЗ", "id": 52 }, "geometry": { "type": "Point", "coordinates": [ 30.4494212, 46.0644017 ] } },
{ "type": "Feature", "properties": { "name": "БУРШТИН", "id": 53 }, "geometry": { "type": "Point", "coordinates": [ 24.6475984, 49.2172712 ] } },
{ "type": "Feature", "properties": { "name": "БУЧАЧ", "id": 54 }, "geometry": { "type": "Point", "coordinates": [ 25.3745113, 49.0611931 ] } },
{ "type": "Feature", "properties": { "name": "ВІЛЬНОГІРСЬК", "id": 55 }, "geometry": { "type": "Point", "coordinates": [ 34.0132599, 48.4648695 ] } },
{ "type": "Feature", "properties": { "name": "ВІННИЦЯ", "id": 56 }, "geometry": { "type": "Point", "coordinates": [ 28.5109544, 49.2392699 ] } },
{ "type": "Feature", "properties": { "name": "ВАДУЛ-СІРЕТ", "id": 57 }, "geometry": { "type": "Point", "coordinates": [ 25.9599828, 48.0236496 ] } },
{ "type": "Feature", "properties": { "name": "ВАЛУЙКИ", "id": 58 }, "geometry": { "type": "Point", "coordinates": [ 38.1208187, 50.1991477 ] } },
{ "type": "Feature", "properties": { "name": "ВАПНЯРКА", "id": 59 }, "geometry": { "type": "Point", "coordinates": [ 28.7455309, 48.5339315 ] } },
{ "type": "Feature", "properties": { "name": "ВЕЛИКО-АНАДОЛЬ", "id": 60 }, "geometry": { "type": "Point", "coordinates": [ 37.4858095, 47.6982544 ] } },
{ "type": "Feature", "properties": { "name": "ВЕРБКА", "id": 61 }, "geometry": { "type": "Point", "coordinates": [ 24.6932718, 51.2339331 ] } },
{ "type": "Feature", "properties": { "name": "ВЕРХНЬОДНІПРОВСЬК", "id": 62 }, "geometry": { "type": "Point", "coordinates": [ 34.3746556, 48.5532447 ] } },
{ "type": "Feature", "properties": { "name": "ВЕСЕЛИЙ ПОДІЛ", "id": 63 }, "geometry": { "type": "Point", "coordinates": [ 33.1880301, 49.6032469 ] } },
{ "type": "Feature", "properties": { "name": "ВИРІВКА", "id": 64 }, "geometry": { "type": "Point", "coordinates": [ 33.172971, 51.2628833 ] } },
{ "type": "Feature", "properties": { "name": "ВИШНЕВЕ", "id": 65 }, "geometry": { "type": "Point", "coordinates": [ 30.3700927, 50.3845779 ] } },
{ "type": "Feature", "properties": { "name": "ВЛАДИКАВКАЗ", "id": 66 }, "geometry": { "type": "Point", "coordinates": [ 44.6881553, 43.037859 ] } },
{ "type": "Feature", "properties": { "name": "ВОВЧАНСЬК", "id": 67 }, "geometry": { "type": "Point", "coordinates": [ 36.9193108, 50.2837505 ] } },
{ "type": "Feature", "properties": { "name": "ВОДОЛАГА", "id": 68 }, "geometry": { "type": "Point", "coordinates": [ 35.8789796, 49.7079159 ] } },
{ "type": "Feature", "properties": { "name": "ВОЗНЕСЕНСЬК", "id": 69 }, "geometry": { "type": "Point", "coordinates": [ 31.3235626, 47.5735362 ] } },
{ "type": "Feature", "properties": { "name": "ВОЛЖСК", "id": 70 }, "geometry": { "type": "Point", "coordinates": [ 48.3610474, 55.8628155 ] } },
{ "type": "Feature", "properties": { "name": "ВОЛНОВАХА", "id": 71 }, "geometry": { "type": "Point", "coordinates": [ 37.4897753, 47.6016664 ] } },
{ "type": "Feature", "properties": { "name": "ВОЛОВЕЦЬ", "id": 72 }, "geometry": { "type": "Point", "coordinates": [ 23.1846342, 48.7136239 ] } },
{ "type": "Feature", "properties": { "name": "ВОЛОДИМИР-ВОЛИНСЬКИЙ", "id": 73 }, "geometry": { "type": "Point", "coordinates": [ 24.3351332, 50.8450483 ] } },
{ "type": "Feature", "properties": { "name": "ВОЛОЧИСЬК", "id": 74 }, "geometry": { "type": "Point", "coordinates": [ 26.2084599, 49.5323083 ] } },
{ "type": "Feature", "properties": { "name": "ВОРОЖБА", "id": 75 }, "geometry": { "type": "Point", "coordinates": [ 34.2244171, 51.170062 ] } },
{ "type": "Feature", "properties": { "name": "ВОСКОБІЙНЯ", "id": 76 }, "geometry": { "type": "Point", "coordinates": [ 34.4662355, 48.5224253 ] } },
{ "type": "Feature", "properties": { "name": "ГІРНИК", "id": 77 }, "geometry": { "type": "Point", "coordinates": [ 38.4495827, 48.2044283 ] } },
{ "type": "Feature", "properties": { "name": "ГАВРИЛІВКА", "id": 78 }, "geometry": { "type": "Point", "coordinates": [ 36.8050912, 48.8538787 ] } },
{ "type": "Feature", "properties": { "name": "ГАДЯЧ ІМ. СЕРГІЄНКА М.І.", "id": 79 }, "geometry": { "type": "Point", "coordinates": [ 33.975594, 50.3855602 ] } },
{ "type": "Feature", "properties": { "name": "ГАЙСИН", "id": 80 }, "geometry": { "type": "Point", "coordinates": [ 29.3911586, 48.7957688 ] } },
{ "type": "Feature", "properties": { "name": "ГАЛЕЩИНА", "id": 81 }, "geometry": { "type": "Point", "coordinates": [ 33.7540747, 49.1708314 ] } },
{ "type": "Feature", "properties": { "name": "ГАЛИЧ", "id": 82 }, "geometry": { "type": "Point", "coordinates": [ 24.7327084, 49.1370743 ] } },
{ "type": "Feature", "properties": { "name": "ГЛИННА-НАВАРІЯ", "id": 83 }, "geometry": { "type": "Point", "coordinates": [ 23.8969618, 49.7374204 ] } },
{ "type": "Feature", "properties": { "name": "ГЛОБИНЕ", "id": 84 }, "geometry": { "type": "Point", "coordinates": [ 33.2265276, 49.3997692 ] } },
{ "type": "Feature", "properties": { "name": "ГНІДАВА", "id": 85 }, "geometry": { "type": "Point", "coordinates": [ 25.3195057, 50.6908786 ] } },
{ "type": "Feature", "properties": { "name": "ГОЛОБИ", "id": 86 }, "geometry": { "type": "Point", "coordinates": [ 25.0063518, 51.083481 ] } },
{ "type": "Feature", "properties": { "name": "ГОЛОВАНІВСЬК", "id": 87 }, "geometry": { "type": "Point", "coordinates": [ 30.3967266, 48.3598736 ] } },
{ "type": "Feature", "properties": { "name": "ГОЛУБИЧІ", "id": 88 }, "geometry": { "type": "Point", "coordinates": [ 31.1125234, 51.7785556 ] } },
{ "type": "Feature", "properties": { "name": "ГОРОДИЩЕ", "id": 89 }, "geometry": { "type": "Point", "coordinates": [ 27.8474656, 53.9868498 ] } },
{ "type": "Feature", "properties": { "name": "ГОРОХОВЕЦ", "id": 90 }, "geometry": { "type": "Point", "coordinates": [ 42.8143708, 56.1592808 ] } },
{ "type": "Feature", "properties": { "name": "ГОРЯЇНОВЕ", "id": 91 }, "geometry": { "type": "Point", "coordinates": [ 34.9823816, 48.478465 ] } },
{ "type": "Feature", "properties": { "name": "ГРАКОВЕ", "id": 92 }, "geometry": { "type": "Point", "coordinates": [ 36.8671073, 49.7291512 ] } },
{ "type": "Feature", "properties": { "name": "ГРЕБІНКА", "id": 93 }, "geometry": { "type": "Point", "coordinates": [ 32.4322795, 50.1220775 ] } },
{ "type": "Feature", "properties": { "name": "ГРЕБЕНІВ", "id": 94 }, "geometry": { "type": "Point", "coordinates": [ 23.4702653, 48.9777539 ] } },
{ "type": "Feature", "properties": { "name": "ГРЕКУВАТА", "id": 95 }, "geometry": { "type": "Point", "coordinates": [ 33.3908705, 48.09582 ] } },
{ "type": "Feature", "properties": { "name": "ГРЕЧАНИ", "id": 96 }, "geometry": { "type": "Point", "coordinates": [ 26.9296625, 49.442871 ] } },
{ "type": "Feature", "properties": { "name": "ГУБИНИХА", "id": 97 }, "geometry": { "type": "Point", "coordinates": [ 35.2732131, 48.8126571 ] } },
{ "type": "Feature", "properties": { "name": "ГУМЕНЦІ", "id": 98 }, "geometry": { "type": "Point", "coordinates": [ 26.6059867, 48.7698729 ] } },
{ "type": "Feature", "properties": { "name": "ГУСАРІВКА", "id": 99 }, "geometry": { "type": "Point", "coordinates": [ 37.1489222, 48.8826899 ] } },
{ "type": "Feature", "properties": { "name": "ГУСИНКА", "id": 100 }, "geometry": { "type": "Point", "coordinates": [ 37.4119477, 49.8475071 ] } },
{ "type": "Feature", "properties": { "name": "ДІЇВКА", "id": 101 }, "geometry": { "type": "Point", "coordinates": [ 34.9116856, 48.4627335 ] } },
{ "type": "Feature", "properties": { "name": "ДАРНИЦЯ", "id": 102 }, "geometry": { "type": "Point", "coordinates": [ 30.6457128, 50.4315392 ] } },
{ "type": "Feature", "properties": { "name": "ДЕКОНСЬКА", "id": 103 }, "geometry": { "type": "Point", "coordinates": [ 38.0837805, 48.6769662 ] } },
{ "type": "Feature", "properties": { "name": "ДЕРАЖНЯ", "id": 104 }, "geometry": { "type": "Point", "coordinates": [ 27.430666, 49.2672578 ] } },
{ "type": "Feature", "properties": { "name": "ДЖУЛИНКА", "id": 105 }, "geometry": { "type": "Point", "coordinates": [ 29.7360354, 48.4575213 ] } },
{ "type": "Feature", "properties": { "name": "ДЗИНІЛОР", "id": 106 }, "geometry": { "type": "Point", "coordinates": [ 29.1146039, 45.6510486 ] } },
{ "type": "Feature", "properties": { "name": "ДНІПРО-ВАНТАЖНИЙ", "id": 107 }, "geometry": { "type": "Point", "coordinates": [ 34.9910132, 48.4217014 ] } },
{ "type": "Feature", "properties": { "name": "ДНІПРО-ГОЛОВНИЙ", "id": 108 }, "geometry": { "type": "Point", "coordinates": [ 35.0151028, 48.4777573 ] } },
{ "type": "Feature", "properties": { "name": "ДНІПРО-ЛІСКИ", "id": 109 }, "geometry": { "type": "Point", "coordinates": [ 34.9924656, 48.4091296 ] } },
{ "type": "Feature", "properties": { "name": "ДОБРОПІЛЛЯ", "id": 110 }, "geometry": { "type": "Point", "coordinates": [ 37.0759021, 48.4485325 ] } },
{ "type": "Feature", "properties": { "name": "ДОБРОСИН", "id": 111 }, "geometry": { "type": "Point", "coordinates": [ 23.8284482, 50.1241088 ] } },
{ "type": "Feature", "properties": { "name": "ДОЛИНСЬКА", "id": 112 }, "geometry": { "type": "Point", "coordinates": [ 32.7601379, 48.1152632 ] } },
{ "type": "Feature", "properties": { "name": "ДРОГОБИЧ", "id": 113 }, "geometry": { "type": "Point", "coordinates": [ 23.5436425, 49.3550316 ] } },
{ "type": "Feature", "properties": { "name": "ДРУЖКІВКА", "id": 114 }, "geometry": { "type": "Point", "coordinates": [ 37.5466088, 48.6272563 ] } },
{ "type": "Feature", "properties": { "name": "ДУБІВЦІ", "id": 115 }, "geometry": { "type": "Point", "coordinates": [ 24.7956505, 49.0916957 ] } },
{ "type": "Feature", "properties": { "name": "ДУБЛЯНИ-ЛЬВІВСЬКІ", "id": 116 }, "geometry": { "type": "Point", "coordinates": [ 24.0920717, 49.8825334 ] } },
{ "type": "Feature", "properties": { "name": "ДУБРОВИЦЯ", "id": 117 }, "geometry": { "type": "Point", "coordinates": [ 26.5951565, 51.5606403 ] } },
{ "type": "Feature", "properties": { "name": "ДУНАЇВЦІ", "id": 118 }, "geometry": { "type": "Point", "coordinates": [ 26.8399244, 49.022305 ] } },
{ "type": "Feature", "properties": { "name": "ЕЛЕЦ", "id": 119 }, "geometry": { "type": "Point", "coordinates": [ 38.5257962, 52.6061309 ] } },
{ "type": "Feature", "properties": { "name": "ЕСЕНЬ", "id": 120 }, "geometry": { "type": "Point", "coordinates": [ 22.3139924, 48.3951363 ] } },
{ "type": "Feature", "properties": { "name": "ЕССЕНТУКИ", "id": 121 }, "geometry": { "type": "Point", "coordinates": [ 42.8543592, 44.0482243 ] } },
{ "type": "Feature", "properties": { "name": "ЕСХАР", "id": 122 }, "geometry": { "type": "Point", "coordinates": [ 36.5644128, 49.8278231 ] } },
{ "type": "Feature", "properties": { "name": "ЕФРЕМОВ", "id": 123 }, "geometry": { "type": "Point", "coordinates": [ 38.1255529, 53.1486167 ] } },
{ "type": "Feature", "properties": { "name": "ЖЕРЕБКОВЕ", "id": 124 }, "geometry": { "type": "Point", "coordinates": [ 29.8763173, 47.8365182 ] } },
{ "type": "Feature", "properties": { "name": "ЖИДАЧІВ", "id": 125 }, "geometry": { "type": "Point", "coordinates": [ 24.1578168, 49.3778364 ] } },
{ "type": "Feature", "properties": { "name": "ЖИТОМИР", "id": 126 }, "geometry": { "type": "Point", "coordinates": [ 28.6987568, 50.2684766 ] } },
{ "type": "Feature", "properties": { "name": "ЖМЕРИНКА", "id": 127 }, "geometry": { "type": "Point", "coordinates": [ 28.1119967, 49.0340265 ] } },
{ "type": "Feature", "properties": { "name": "ЖОВТНЕВА", "id": 128 }, "geometry": { "type": "Point", "coordinates": [ 31.9744825, 46.8393946 ] } },
{ "type": "Feature", "properties": { "name": "ЖОДИНО", "id": 129 }, "geometry": { "type": "Point", "coordinates": [ 28.340996, 54.1022401 ] } },
{ "type": "Feature", "properties": { "name": "ЖОРНАВА", "id": 130 }, "geometry": { "type": "Point", "coordinates": [ 22.6329601, 48.9869012 ] } },
{ "type": "Feature", "properties": { "name": "ЖУКОТКИ", "id": 131 }, "geometry": { "type": "Point", "coordinates": [ 31.012306, 51.5023864 ] } },
{ "type": "Feature", "properties": { "name": "ЗАКУПНЕ", "id": 132 }, "geometry": { "type": "Point", "coordinates": [ 26.3204147, 49.1119092 ] } },
{ "type": "Feature", "properties": { "name": "ЗАЛІЩИКИ", "id": 133 }, "geometry": { "type": "Point", "coordinates": [ 25.7384967, 48.6453913 ] } },
{ "type": "Feature", "properties": { "name": "ЗАПЛАЗИ", "id": 134 }, "geometry": { "type": "Point", "coordinates": [ 30.1237609, 47.8590743 ] } },
{ "type": "Feature", "properties": { "name": "ЗАПОВІТНЕ", "id": 135 }, "geometry": { "type": "Point", "coordinates": [ 33.558835, 46.7739993 ] } },
{ "type": "Feature", "properties": { "name": "ЗАПОРІЖЖЯ-ВАНТАЖНЕ", "id": 136 }, "geometry": { "type": "Point", "coordinates": [ 35.2570475, 47.8554368 ] } },
{ "type": "Feature", "properties": { "name": "ЗАПОРІЖЖЯ-ЛІВЕ", "id": 137 }, "geometry": { "type": "Point", "coordinates": [ 35.2285115, 47.8788032 ] } },
{ "type": "Feature", "properties": { "name": "ЗАСІЛЛЯ", "id": 138 }, "geometry": { "type": "Point", "coordinates": [ 32.4206833, 47.0249643 ] } },
{ "type": "Feature", "properties": { "name": "ЗАСУЛЛЯ", "id": 139 }, "geometry": { "type": "Point", "coordinates": [ 33.4897977, 50.7013133 ] } },
{ "type": "Feature", "properties": { "name": "ЗАТИШШЯ", "id": 140 }, "geometry": { "type": "Point", "coordinates": [ 29.8787023, 47.3359765 ] } },
{ "type": "Feature", "properties": { "name": "ЗБАРАЖ", "id": 141 }, "geometry": { "type": "Point", "coordinates": [ 25.7629638, 49.6779581 ] } },
{ "type": "Feature", "properties": { "name": "ЗВЕНИГОРОДКА", "id": 142 }, "geometry": { "type": "Point", "coordinates": [ 30.983284, 48.9824045 ] } },
{ "type": "Feature", "properties": { "name": "ЗДОЛБУНІВ", "id": 143 }, "geometry": { "type": "Point", "coordinates": [ 26.2569062, 50.5279901 ] } },
{ "type": "Feature", "properties": { "name": "ЗЕЛЕНЕ ПОЛЕ", "id": 144 }, "geometry": { "type": "Point", "coordinates": [ 33.6600013, 47.5566537 ] } },
{ "type": "Feature", "properties": { "name": "ЗЛОЧІВ", "id": 145 }, "geometry": { "type": "Point", "coordinates": [ 24.8902296, 49.789464 ] } },
{ "type": "Feature", "properties": { "name": "ЗНАМ’ЯНКА", "id": 146 }, "geometry": { "type": "Point", "coordinates": [ 32.6580952, 48.7158834 ] } },
{ "type": "Feature", "properties": { "name": "ЗОЛОТНИШИНЕ", "id": 147 }, "geometry": { "type": "Point", "coordinates": [ 33.6449094, 49.019022 ] } },
{ "type": "Feature", "properties": { "name": "ЗЯТКІВЦІ", "id": 148 }, "geometry": { "type": "Point", "coordinates": [ 29.4456187, 48.7102903 ] } },
{ "type": "Feature", "properties": { "name": "ИСАКОГОРКА", "id": 149 }, "geometry": { "type": "Point", "coordinates": [ 40.6090288, 64.4291407 ] } },
{ "type": "Feature", "properties": { "name": "КІВЕРЦІ", "id": 150 }, "geometry": { "type": "Point", "coordinates": [ 25.4622891, 50.8303663 ] } },
{ "type": "Feature", "properties": { "name": "КІНЕЦЬПІЛЬ", "id": 151 }, "geometry": { "type": "Point", "coordinates": [ 30.8446581, 47.9672118 ] } },
{ "type": "Feature", "properties": { "name": "КАВУНИ", "id": 152 }, "geometry": { "type": "Point", "coordinates": [ 31.2728684, 47.9101104 ] } },
{ "type": "Feature", "properties": { "name": "КАГАМЛИЦЬКА", "id": 153 }, "geometry": { "type": "Point", "coordinates": [ 33.4507794, 49.1327278 ] } },
{ "type": "Feature", "properties": { "name": "КАЗНАЧЕЕВКА", "id": 154 }, "geometry": { "type": "Point", "coordinates": [ 37.5455393, 54.0526021 ] } },
{ "type": "Feature", "properties": { "name": "КАЛИНКОВИЧИ", "id": 155 }, "geometry": { "type": "Point", "coordinates": [ 29.3134619, 52.1389091 ] } },
{ "type": "Feature", "properties": { "name": "КАЛУШ", "id": 156 }, "geometry": { "type": "Point", "coordinates": [ 24.3489717, 49.0126164 ] } },
{ "type": "Feature", "properties": { "name": "КИЇВ-ВОЛИНСЬКИЙ", "id": 157 }, "geometry": { "type": "Point", "coordinates": [ 30.4314658, 50.4120772 ] } },
{ "type": "Feature", "properties": { "name": "КИЇВ-ДЕМІЇВСЬКИЙ", "id": 158 }, "geometry": { "type": "Point", "coordinates": [ 30.5366674, 50.4050787 ] } },
{ "type": "Feature", "properties": { "name": "КИЇВ-ДНІПРОВСЬКИЙ", "id": 159 }, "geometry": { "type": "Point", "coordinates": [ 30.5963979, 50.4615058 ] } },
{ "type": "Feature", "properties": { "name": "КИЇВ-ЛІСКИ", "id": 160 }, "geometry": { "type": "Point", "coordinates": [ 30.6621395, 50.4487767 ] } },
{ "type": "Feature", "properties": { "name": "КИЇВ-ПАСАЖИРСЬКИЙ", "id": 161 }, "geometry": { "type": "Point", "coordinates": [ 30.4886551, 50.4398558 ] } },
{ "type": "Feature", "properties": { "name": "КЛЕВАНЬ", "id": 162 }, "geometry": { "type": "Point", "coordinates": [ 26.0277736, 50.7513761 ] } },
{ "type": "Feature", "properties": { "name": "КЛЕПАРІВ", "id": 163 }, "geometry": { "type": "Point", "coordinates": [ 23.9805606, 49.8554619 ] } },
{ "type": "Feature", "properties": { "name": "КНЯЖЕВЕ", "id": 164 }, "geometry": { "type": "Point", "coordinates": [ 28.8129397, 48.4718816 ] } },
{ "type": "Feature", "properties": { "name": "КОБЕЛЯКИ", "id": 165 }, "geometry": { "type": "Point", "coordinates": [ 34.1036723, 49.2307042 ] } },
{ "type": "Feature", "properties": { "name": "КОВЕЛЬ", "id": 166 }, "geometry": { "type": "Point", "coordinates": [ 24.7124893, 51.2212513 ] } },
{ "type": "Feature", "properties": { "name": "КОДИМА", "id": 167 }, "geometry": { "type": "Point", "coordinates": [ 29.1213883, 48.0912018 ] } },
{ "type": "Feature", "properties": { "name": "КОДНЯ", "id": 168 }, "geometry": { "type": "Point", "coordinates": [ 28.6646161, 50.1077887 ] } },
{ "type": "Feature", "properties": { "name": "КОЗЕНКИ", "id": 169 }, "geometry": { "type": "Point", "coordinates": [ 29.1806183, 52.0318246 ] } },
{ "type": "Feature", "properties": { "name": "КОЗОВА", "id": 170 }, "geometry": { "type": "Point", "coordinates": [ 25.1642758, 49.4294691 ] } },
{ "type": "Feature", "properties": { "name": "КОЙТЫ", "id": 171 }, "geometry": { "type": "Point", "coordinates": [ 50.6817021, 61.8499859 ] } },
{ "type": "Feature", "properties": { "name": "КОЛОМИЯ", "id": 172 }, "geometry": { "type": "Point", "coordinates": [ 25.0603855, 48.5346411 ] } },
{ "type": "Feature", "properties": { "name": "КОЛЯДИЧИ", "id": 173 }, "geometry": { "type": "Point", "coordinates": [ 27.5797714, 53.8080972 ] } },
{ "type": "Feature", "properties": { "name": "КОМАРІВЦІ", "id": 174 }, "geometry": { "type": "Point", "coordinates": [ 27.6637464, 49.1957684 ] } },
{ "type": "Feature", "properties": { "name": "КОМБИНАТСКАЯ", "id": 175 }, "geometry": { "type": "Point", "coordinates": [ 59.413981, 54.3309678 ] } },
{ "type": "Feature", "properties": { "name": "КОМИШ-ЗОРЯ", "id": 176 }, "geometry": { "type": "Point", "coordinates": [ 36.6985604, 47.3279536 ] } },
{ "type": "Feature", "properties": { "name": "КОНОНІВКА", "id": 177 }, "geometry": { "type": "Point", "coordinates": [ 32.1065118, 50.1775381 ] } },
{ "type": "Feature", "properties": { "name": "КОНОТОП", "id": 178 }, "geometry": { "type": "Point", "coordinates": [ 33.1878626, 51.2231538 ] } },
{ "type": "Feature", "properties": { "name": "КОРИСТІВКА", "id": 179 }, "geometry": { "type": "Point", "coordinates": [ 33.0662318, 48.7321503 ] } },
{ "type": "Feature", "properties": { "name": "КОРОБОЧКИНЕ", "id": 180 }, "geometry": { "type": "Point", "coordinates": [ 36.7424494, 49.7711094 ] } },
{ "type": "Feature", "properties": { "name": "КОРОЛІВКА", "id": 181 }, "geometry": { "type": "Point", "coordinates": [ 33.2233485, 48.5797631 ] } },
{ "type": "Feature", "properties": { "name": "КОРОСТЕНЬ", "id": 182 }, "geometry": { "type": "Point", "coordinates": [ 28.6350547, 50.9575934 ] } },
{ "type": "Feature", "properties": { "name": "КОРОСТЕНЬ-ПОДІЛЬСЬКИЙ", "id": 183 }, "geometry": { "type": "Point", "coordinates": [ 28.6131438, 50.9846132 ] } },
{ "type": "Feature", "properties": { "name": "КОРОСТИШІВ", "id": 184 }, "geometry": { "type": "Point", "coordinates": [ 29.0202382, 50.3162698 ] } },
{ "type": "Feature", "properties": { "name": "КОРЧАКІВКА", "id": 185 }, "geometry": { "type": "Point", "coordinates": [ 35.1373878, 50.8199659 ] } },
{ "type": "Feature", "properties": { "name": "КОРЮКІВКА", "id": 186 }, "geometry": { "type": "Point", "coordinates": [ 32.2437562, 51.7620758 ] } },
{ "type": "Feature", "properties": { "name": "КОСТОПІЛЬ", "id": 187 }, "geometry": { "type": "Point", "coordinates": [ 26.443516, 50.8711091 ] } },
{ "type": "Feature", "properties": { "name": "КОСТЮКОВКА", "id": 188 }, "geometry": { "type": "Point", "coordinates": [ 30.9408369, 52.5240723 ] } },
{ "type": "Feature", "properties": { "name": "КОСТЯНТИНІВКА", "id": 189 }, "geometry": { "type": "Point", "coordinates": [ 37.7293414, 48.5117835 ] } },
{ "type": "Feature", "properties": { "name": "КОСЯКОВКА", "id": 190 }, "geometry": { "type": "Point", "coordinates": [ 56.0058711, 53.7054698 ] } },
{ "type": "Feature", "properties": { "name": "КОТЕЛ", "id": 191 }, "geometry": { "type": "Point", "coordinates": [ 37.9062162, 51.2262752 ] } },
{ "type": "Feature", "properties": { "name": "КОЧУБЕЇВКА", "id": 192 }, "geometry": { "type": "Point", "coordinates": [ 34.9710269, 49.7431839 ] } },
{ "type": "Feature", "properties": { "name": "КРАМАТОРСЬК", "id": 193 }, "geometry": { "type": "Point", "coordinates": [ 37.5436075, 48.7257049 ] } },
{ "type": "Feature", "properties": { "name": "КРАСИЛІВ", "id": 194 }, "geometry": { "type": "Point", "coordinates": [ 27.0130849, 49.6695654 ] } },
{ "type": "Feature", "properties": { "name": "КРАСНОГРАД", "id": 195 }, "geometry": { "type": "Point", "coordinates": [ 35.4456639, 49.3605079 ] } },
{ "type": "Feature", "properties": { "name": "КРАСНОЯРСК-СЕВЕРНЫЙ", "id": 196 }, "geometry": { "type": "Point", "coordinates": [ 92.933153, 56.0731574 ] } },
{ "type": "Feature", "properties": { "name": "КРЕМЕНЧУК", "id": 197 }, "geometry": { "type": "Point", "coordinates": [ 33.4282669, 49.0677957 ] } },
{ "type": "Feature", "properties": { "name": "КРЕМИДІВКА", "id": 198 }, "geometry": { "type": "Point", "coordinates": [ 30.7846571, 46.7373416 ] } },
{ "type": "Feature", "properties": { "name": "КРЕСТЫ", "id": 199 }, "geometry": { "type": "Point", "coordinates": [ 37.1039421, 55.2758332 ] } },
{ "type": "Feature", "properties": { "name": "КРИВИЙ РІГ-ГОЛОВНИЙ", "id": 200 }, "geometry": { "type": "Point", "coordinates": [ 33.4516136, 47.9125695 ] } },
{ "type": "Feature", "properties": { "name": "КРИВИЙ РІГ-ЗАХІДНИЙ", "id": 201 }, "geometry": { "type": "Point", "coordinates": [ 33.3109968, 47.8800441 ] } },
{ "type": "Feature", "properties": { "name": "КРИВИЙ ТОРЕЦЬ", "id": 202 }, "geometry": { "type": "Point", "coordinates": [ 37.7816466, 48.4089475 ] } },
{ "type": "Feature", "properties": { "name": "КРИВИН", "id": 203 }, "geometry": { "type": "Point", "coordinates": [ 26.7002548, 50.3616282 ] } },
{ "type": "Feature", "properties": { "name": "КРИЖОПІЛЬ", "id": 204 }, "geometry": { "type": "Point", "coordinates": [ 28.8650603, 48.3792509 ] } },
{ "type": "Feature", "properties": { "name": "КРОЛЕВЕЦЬ", "id": 205 }, "geometry": { "type": "Point", "coordinates": [ 33.3628189, 51.5515264 ] } },
{ "type": "Feature", "properties": { "name": "КРОМСКАЯ", "id": 206 }, "geometry": { "type": "Point", "coordinates": [ 36.0577763, 52.9413983 ] } },
{ "type": "Feature", "properties": { "name": "КРОПИВНИЦЬКИЙ", "id": 207 }, "geometry": { "type": "Point", "coordinates": [ 32.2603995, 48.5237848 ] } },
{ "type": "Feature", "properties": { "name": "КСЕНІЄВЕ", "id": 208 }, "geometry": { "type": "Point", "coordinates": [ 30.6215263, 46.3633433 ] } },
{ "type": "Feature", "properties": { "name": "КУЛИНДОРОВЕ", "id": 209 }, "geometry": { "type": "Point", "coordinates": [ 30.7930894, 46.633581 ] } },
{ "type": "Feature", "properties": { "name": "КУЛЬБАКИНЕ", "id": 210 }, "geometry": { "type": "Point", "coordinates": [ 32.0695448, 46.91525 ] } },
{ "type": "Feature", "properties": { "name": "КУП’ЯНСЬК-ВУЗЛОВИЙ", "id": 211 }, "geometry": { "type": "Point", "coordinates": [ 37.6441755, 49.6526207 ] } },
{ "type": "Feature", "properties": { "name": "КУЦІВКА", "id": 212 }, "geometry": { "type": "Point", "coordinates": [ 32.7918967, 48.3139525 ] } },
{ "type": "Feature", "properties": { "name": "КУЧУРГАН", "id": 213 }, "geometry": { "type": "Point", "coordinates": [ 30.0022967, 46.7538749 ] } },
{ "type": "Feature", "properties": { "name": "КУШУГУМ", "id": 214 }, "geometry": { "type": "Point", "coordinates": [ 35.1946405, 47.7223523 ] } },
{ "type": "Feature", "properties": { "name": "ЛІВОБЕРЕЖНА", "id": 215 }, "geometry": { "type": "Point", "coordinates": [ 33.2677992, 49.1291161 ] } },
{ "type": "Feature", "properties": { "name": "ЛІЩИНІВКА", "id": 216 }, "geometry": { "type": "Point", "coordinates": [ 34.2669373, 49.2601553 ] } },
{ "type": "Feature", "properties": { "name": "ЛАДИЖИН", "id": 217 }, "geometry": { "type": "Point", "coordinates": [ 29.2399939, 48.6303524 ] } },
{ "type": "Feature", "properties": { "name": "ЛАНІВЦІ", "id": 218 }, "geometry": { "type": "Point", "coordinates": [ 26.0833846, 49.8742014 ] } },
{ "type": "Feature", "properties": { "name": "ЛЕБЕДИНСЬКА", "id": 219 }, "geometry": { "type": "Point", "coordinates": [ 34.4909165, 50.5691508 ] } },
{ "type": "Feature", "properties": { "name": "ЛЕГЕНДАРНА", "id": 220 }, "geometry": { "type": "Point", "coordinates": [ 36.9890981, 48.6433464 ] } },
{ "type": "Feature", "properties": { "name": "ЛЕСОК", "id": 221 }, "geometry": { "type": "Point", "coordinates": [ 39.7957133, 54.5854401 ] } },
{ "type": "Feature", "properties": { "name": "ЛИДА", "id": 222 }, "geometry": { "type": "Point", "coordinates": [ 25.2945989, 53.8815132 ] } },
{ "type": "Feature", "properties": { "name": "ЛИМАН", "id": 223 }, "geometry": { "type": "Point", "coordinates": [ 37.8252571, 48.9657163 ] } },
{ "type": "Feature", "properties": { "name": "ЛИНОВИЦЯ", "id": 224 }, "geometry": { "type": "Point", "coordinates": [ 32.3759638, 50.4725147 ] } },
{ "type": "Feature", "properties": { "name": "ЛИПОВЕЦЬ", "id": 225 }, "geometry": { "type": "Point", "coordinates": [ 29.2283606, 49.2475242 ] } },
{ "type": "Feature", "properties": { "name": "ЛИХАЧОВЕ", "id": 226 }, "geometry": { "type": "Point", "coordinates": [ 36.2080758, 49.3821469 ] } },
{ "type": "Feature", "properties": { "name": "ЛОЗОВА", "id": 227 }, "geometry": { "type": "Point", "coordinates": [ 36.3190017, 48.8913879 ] } },
{ "type": "Feature", "properties": { "name": "ЛОСКУТІВКА", "id": 228 }, "geometry": { "type": "Point", "coordinates": [ 38.4183192, 48.8039336 ] } },
{ "type": "Feature", "properties": { "name": "ЛОЩИННАЯ", "id": 229 }, "geometry": { "type": "Point", "coordinates": [ 56.0981298, 54.8717799 ] } },
{ "type": "Feature", "properties": { "name": "ЛУБНИ", "id": 230 }, "geometry": { "type": "Point", "coordinates": [ 32.9752521, 50.0203524 ] } },
{ "type": "Feature", "properties": { "name": "ЛУНИНЕЦ", "id": 231 }, "geometry": { "type": "Point", "coordinates": [ 26.8069649, 52.2437988 ] } },
{ "type": "Feature", "properties": { "name": "ЛУЦЬК", "id": 232 }, "geometry": { "type": "Point", "coordinates": [ 25.3510605, 50.7579735 ] } },
{ "type": "Feature", "properties": { "name": "ЛЮБАШІВКА", "id": 233 }, "geometry": { "type": "Point", "coordinates": [ 30.267114, 47.8467753 ] } },
{ "type": "Feature", "properties": { "name": "ЛЮБОМИРСЬК", "id": 234 }, "geometry": { "type": "Point", "coordinates": [ 26.3748499, 50.7679534 ] } },
{ "type": "Feature", "properties": { "name": "ЛЮБОТИН-ЗАХІДНИЙ", "id": 235 }, "geometry": { "type": "Point", "coordinates": [ 35.8508945, 49.9532006 ] } },
{ "type": "Feature", "properties": { "name": "ЛЮДМИЛІВКА", "id": 236 }, "geometry": { "type": "Point", "coordinates": [ 31.448659, 48.032768 ] } },
{ "type": "Feature", "properties": { "name": "МАГНИТОГОРСК-ГРУЗОВОЙ", "id": 237 }, "geometry": { "type": "Point", "coordinates": [ 59.0799123, 53.4631429 ] } },
{ "type": "Feature", "properties": { "name": "МАКСИМІВКА-ТЕРНОПІЛЬСЬКА", "id": 238 }, "geometry": { "type": "Point", "coordinates": [ 25.9060744, 49.5965503 ] } },
{ "type": "Feature", "properties": { "name": "МАЛИН", "id": 239 }, "geometry": { "type": "Point", "coordinates": [ 29.2954918, 50.7746435 ] } },
{ "type": "Feature", "properties": { "name": "МАНЕВИЧІ", "id": 240 }, "geometry": { "type": "Point", "coordinates": [ 25.533395, 51.2930963 ] } },
{ "type": "Feature", "properties": { "name": "МАРІУПОЛЬ", "id": 241 }, "geometry": { "type": "Point", "coordinates": [ 37.5550732, 47.0850013 ] } },
{ "type": "Feature", "properties": { "name": "МАРІУПОЛЬ-ПОРТ", "id": 242 }, "geometry": { "type": "Point", "coordinates": [ 37.5065311, 47.0631561 ] } },
{ "type": "Feature", "properties": { "name": "МЕЖОВА", "id": 243 }, "geometry": { "type": "Point", "coordinates": [ 36.7321583, 48.2496719 ] } },
{ "type": "Feature", "properties": { "name": "МЕЛІТОПОЛЬ", "id": 244 }, "geometry": { "type": "Point", "coordinates": [ 35.3566416, 46.8679555 ] } },
{ "type": "Feature", "properties": { "name": "МЕРЕФА", "id": 245 }, "geometry": { "type": "Point", "coordinates": [ 36.0476604, 49.8235636 ] } },
{ "type": "Feature", "properties": { "name": "МИКОЛАЇВ", "id": 246 }, "geometry": { "type": "Point", "coordinates": [ 32.0626947, 46.9380295 ] } },
{ "type": "Feature", "properties": { "name": "МИКОЛАЇВ-ВАНТАЖНИЙ", "id": 247 }, "geometry": { "type": "Point", "coordinates": [ 31.975646, 46.9574246 ] } },
{ "type": "Feature", "properties": { "name": "МИКОЛАЇВКА-ДОНЕЦЬКА", "id": 248 }, "geometry": { "type": "Point", "coordinates": [ 36.3474071, 48.3789549 ] } },
{ "type": "Feature", "properties": { "name": "МИКУЛИНЦІ-СТРУСІВ", "id": 249 }, "geometry": { "type": "Point", "coordinates": [ 25.6495967, 49.3606355 ] } },
{ "type": "Feature", "properties": { "name": "МИЛЛЕРОВО", "id": 250 }, "geometry": { "type": "Point", "coordinates": [ 40.3926924, 48.9213192 ] } },
{ "type": "Feature", "properties": { "name": "МИНЕРАЛЬНЫЕ ВОДЫ", "id": 251 }, "geometry": { "type": "Point", "coordinates": [ 43.1398697, 44.2138897 ] } },
{ "type": "Feature", "properties": { "name": "МИРОНІВКА", "id": 252 }, "geometry": { "type": "Point", "coordinates": [ 30.9806845, 49.6482492 ] } },
{ "type": "Feature", "properties": { "name": "МОЖ", "id": 253 }, "geometry": { "type": "Point", "coordinates": [ 36.087565, 49.7705316 ] } },
{ "type": "Feature", "properties": { "name": "МУДРЬОНА", "id": 254 }, "geometry": { "type": "Point", "coordinates": [ 33.3992489, 47.9177298 ] } },
{ "type": "Feature", "properties": { "name": "НІГИН", "id": 255 }, "geometry": { "type": "Point", "coordinates": [ 26.604812, 48.8285897 ] } },
{ "type": "Feature", "properties": { "name": "НІЖИН", "id": 256 }, "geometry": { "type": "Point", "coordinates": [ 31.8886075, 51.0179844 ] } },
{ "type": "Feature", "properties": { "name": "НІКЕЛЬ-ПОБУЗЬКИЙ", "id": 257 }, "geometry": { "type": "Point", "coordinates": [ 30.6151338, 48.1732521 ] } },
{ "type": "Feature", "properties": { "name": "НІКОПОЛЬ", "id": 258 }, "geometry": { "type": "Point", "coordinates": [ 34.3915318, 47.5858133 ] } },
{ "type": "Feature", "properties": { "name": "НАДВІРНА", "id": 259 }, "geometry": { "type": "Point", "coordinates": [ 24.5849831, 48.6241664 ] } },
{ "type": "Feature", "properties": { "name": "НАРКЕВИЧІ", "id": 260 }, "geometry": { "type": "Point", "coordinates": [ 26.6210932, 49.5084877 ] } },
{ "type": "Feature", "properties": { "name": "НИЖНЕКАМСК", "id": 261 }, "geometry": { "type": "Point", "coordinates": [ 51.8105871, 55.6174584 ] } },
{ "type": "Feature", "properties": { "name": "НИЖНЬОДНІПРОВСЬК", "id": 262 }, "geometry": { "type": "Point", "coordinates": [ 35.0644183, 48.4983087 ] } },
{ "type": "Feature", "properties": { "name": "НИЗОВКА", "id": 263 }, "geometry": { "type": "Point", "coordinates": [ 47.104038, 61.2610726 ] } },
{ "type": "Feature", "properties": { "name": "НОВІ БЕЗРАДИЧІ", "id": 264 }, "geometry": { "type": "Point", "coordinates": [ 30.623514, 50.1862548 ] } },
{ "type": "Feature", "properties": { "name": "НОВІ САНЖАРИ", "id": 265 }, "geometry": { "type": "Point", "coordinates": [ 34.4042948, 49.3275821 ] } },
{ "type": "Feature", "properties": { "name": "НОВА БАВАРІЯ", "id": 266 }, "geometry": { "type": "Point", "coordinates": [ 36.1600821, 49.9553455 ] } },
{ "type": "Feature", "properties": { "name": "НОВА БОРОВА", "id": 267 }, "geometry": { "type": "Point", "coordinates": [ 28.624315, 50.691235 ] } },
{ "type": "Feature", "properties": { "name": "НОВГОРОД-СІВЕРСЬКИЙ", "id": 268 }, "geometry": { "type": "Point", "coordinates": [ 33.2550714, 51.9931874 ] } },
{ "type": "Feature", "properties": { "name": "НОВОМИРГОРОД", "id": 269 }, "geometry": { "type": "Point", "coordinates": [ 31.6779346, 48.7948782 ] } },
{ "type": "Feature", "properties": { "name": "НОВОМОСКОВСЬК-ДНІПРОВСЬКИЙ", "id": 270 }, "geometry": { "type": "Point", "coordinates": [ 35.2322052, 48.6424704 ] } },
{ "type": "Feature", "properties": { "name": "НОВООЛЕКСІЇВКА", "id": 271 }, "geometry": { "type": "Point", "coordinates": [ 34.6461095, 46.2256593 ] } },
{ "type": "Feature", "properties": { "name": "НОВОПОЛОЦК", "id": 272 }, "geometry": { "type": "Point", "coordinates": [ 28.5658146, 55.5043974 ] } },
{ "type": "Feature", "properties": { "name": "НОВОУКРАЇНКА", "id": 273 }, "geometry": { "type": "Point", "coordinates": [ 31.516143, 48.3325669 ] } },
{ "type": "Feature", "properties": { "name": "НОВОЯРОСЛАВСКАЯ", "id": 274 }, "geometry": { "type": "Point", "coordinates": [ 39.7929074, 57.5756674 ] } },
{ "type": "Feature", "properties": { "name": "ОБВІДНА", "id": 275 }, "geometry": { "type": "Point", "coordinates": [ 34.9628264, 48.4392577 ] } },
{ "type": "Feature", "properties": { "name": "ОВРУЧ", "id": 276 }, "geometry": { "type": "Point", "coordinates": [ 28.8179975, 51.3248029 ] } },
{ "type": "Feature", "properties": { "name": "ОДЕСА-ЗАХІДНА", "id": 277 }, "geometry": { "type": "Point", "coordinates": [ 30.653464, 46.4387122 ] } },
{ "type": "Feature", "properties": { "name": "ОДЕСА-ПЕРЕСИП", "id": 278 }, "geometry": { "type": "Point", "coordinates": [ 30.7261687, 46.5244926 ] } },
{ "type": "Feature", "properties": { "name": "ОДЕСА-ПОРТ", "id": 279 }, "geometry": { "type": "Point", "coordinates": [ 30.7484149, 46.4857247 ] } },
{ "type": "Feature", "properties": { "name": "ОДЕСА-СОРТУВАЛЬНА", "id": 280 }, "geometry": { "type": "Point", "coordinates": [ 30.7546931, 46.554266 ] } },
{ "type": "Feature", "properties": { "name": "ОДЕСА-ТОВАРНА", "id": 281 }, "geometry": { "type": "Point", "coordinates": [ 30.7140459, 46.4555751 ] } },
{ "type": "Feature", "properties": { "name": "ОЗЕРЯНИ", "id": 282 }, "geometry": { "type": "Point", "coordinates": [ 26.0353308, 50.4576061 ] } },
{ "type": "Feature", "properties": { "name": "ОЛЕКСАНДРІВКА", "id": 283 }, "geometry": { "type": "Point", "coordinates": [ 31.6251351, 48.5380095 ] } },
{ "type": "Feature", "properties": { "name": "ОЛЕКСАНДРІЯ", "id": 284 }, "geometry": { "type": "Point", "coordinates": [ 33.1329252, 48.6739893 ] } },
{ "type": "Feature", "properties": { "name": "ОМСК-ВОСТОЧНЫЙ", "id": 285 }, "geometry": { "type": "Point", "coordinates": [ 73.4417095, 54.9467318 ] } },
{ "type": "Feature", "properties": { "name": "ОРЛІВЩИНА", "id": 286 }, "geometry": { "type": "Point", "coordinates": [ 35.4030324, 48.6169356 ] } },
{ "type": "Feature", "properties": { "name": "ОРЛОВКА", "id": 287 }, "geometry": { "type": "Point", "coordinates": [ 44.5758788, 48.8544144 ] } },
{ "type": "Feature", "properties": { "name": "ОСНОВА", "id": 288 }, "geometry": { "type": "Point", "coordinates": [ 36.2367654, 49.9371639 ] } },
{ "type": "Feature", "properties": { "name": "ОХТИРКА", "id": 289 }, "geometry": { "type": "Point", "coordinates": [ 34.9165496, 50.317454 ] } },
{ "type": "Feature", "properties": { "name": "ОЧЕРЕТИНЕ", "id": 290 }, "geometry": { "type": "Point", "coordinates": [ 37.6118207, 48.2413722 ] } },
{ "type": "Feature", "properties": { "name": "ПІВДЕННОДОНБАСЬКА", "id": 291 }, "geometry": { "type": "Point", "coordinates": [ 37.5093438, 47.7517453 ] } },
{ "type": "Feature", "properties": { "name": "ПІДГОРОДНА", "id": 292 }, "geometry": { "type": "Point", "coordinates": [ 30.8933052, 48.109363 ] } },
{ "type": "Feature", "properties": { "name": "ПІДЗАМЧЕ", "id": 293 }, "geometry": { "type": "Point", "coordinates": [ 24.0339587, 49.8511313 ] } },
{ "type": "Feature", "properties": { "name": "ПАНЮТИНЕ", "id": 294 }, "geometry": { "type": "Point", "coordinates": [ 36.2811466, 48.9404319 ] } },
{ "type": "Feature", "properties": { "name": "ПАТРИАРШАЯ", "id": 295 }, "geometry": { "type": "Point", "coordinates": [ 39.0616731, 52.6542246 ] } },
{ "type": "Feature", "properties": { "name": "ПЕНИЗЕВИЧІ", "id": 296 }, "geometry": { "type": "Point", "coordinates": [ 29.3696613, 50.7366371 ] } },
{ "type": "Feature", "properties": { "name": "ПЕРВОМАЙСЬК-НА-БУЗІ", "id": 297 }, "geometry": { "type": "Point", "coordinates": [ 30.8508811, 48.0411294 ] } },
{ "type": "Feature", "properties": { "name": "ПЕРЕДАТНА", "id": 298 }, "geometry": { "type": "Point", "coordinates": [ 35.2236592, 47.818578 ] } },
{ "type": "Feature", "properties": { "name": "ПЕРЕЧИН", "id": 299 }, "geometry": { "type": "Point", "coordinates": [ 22.4785884, 48.7328828 ] } },
{ "type": "Feature", "properties": { "name": "ПЕТРО КРИВОНІС", "id": 300 }, "geometry": { "type": "Point", "coordinates": [ 30.5447604, 50.3540573 ] } },
{ "type": "Feature", "properties": { "name": "ПЕЧАТКИНО", "id": 301 }, "geometry": { "type": "Point", "coordinates": [ 40.1431648, 59.507535 ] } },
{ "type": "Feature", "properties": { "name": "ПОДІЛЬСЬК", "id": 302 }, "geometry": { "type": "Point", "coordinates": [ 29.5286062, 47.7500196 ] } },
{ "type": "Feature", "properties": { "name": "ПОКРОВСЬК", "id": 303 }, "geometry": { "type": "Point", "coordinates": [ 37.179778, 48.2850109 ] } },
{ "type": "Feature", "properties": { "name": "ПОЛОГИ", "id": 304 }, "geometry": { "type": "Point", "coordinates": [ 36.2589167, 47.4762993 ] } },
{ "type": "Feature", "properties": { "name": "ПОЛОННЕ", "id": 305 }, "geometry": { "type": "Point", "coordinates": [ 27.4881715, 50.1396161 ] } },
{ "type": "Feature", "properties": { "name": "ПОЛТАВА-КИЇВСЬКА", "id": 306 }, "geometry": { "type": "Point", "coordinates": [ 34.5254901, 49.6035227 ] } },
{ "type": "Feature", "properties": { "name": "ПОЛТАВА-ПІВДЕННА", "id": 307 }, "geometry": { "type": "Point", "coordinates": [ 34.5951581, 49.5820003 ] } },
{ "type": "Feature", "properties": { "name": "ПОМІЧНА", "id": 308 }, "geometry": { "type": "Point", "coordinates": [ 31.4082309, 48.2411528 ] } },
{ "type": "Feature", "properties": { "name": "ПОПАСНА", "id": 309 }, "geometry": { "type": "Point", "coordinates": [ 38.3793501, 48.6302927 ] } },
{ "type": "Feature", "properties": { "name": "ПОРОМНА", "id": 310 }, "geometry": { "type": "Point", "coordinates": [ 30.6563749, 46.3968899 ] } },
{ "type": "Feature", "properties": { "name": "ПОРТ-ВЕЛИКЕ ЗАПОРІЖЖЯ", "id": 311 }, "geometry": { "type": "Point", "coordinates": [ 35.1167612, 47.8757779 ] } },
{ "type": "Feature", "properties": { "name": "ПОЧАЙНА", "id": 312 }, "geometry": { "type": "Point", "coordinates": [ 30.5015646, 50.4846097 ] } },
{ "type": "Feature", "properties": { "name": "ПРАВДА", "id": 313 }, "geometry": { "type": "Point", "coordinates": [ 34.6604119, 48.5172104 ] } },
{ "type": "Feature", "properties": { "name": "ПРИБУЗЬКА", "id": 314 }, "geometry": { "type": "Point", "coordinates": [ 32.038174, 46.8617002 ] } },
{ "type": "Feature", "properties": { "name": "ПРИДАЧА", "id": 315 }, "geometry": { "type": "Point", "coordinates": [ 39.2588845, 51.6401475 ] } },
{ "type": "Feature", "properties": { "name": "ПРИДОНЕЦЬКА", "id": 316 }, "geometry": { "type": "Point", "coordinates": [ 37.7037178, 48.8965011 ] } },
{ "type": "Feature", "properties": { "name": "ПРИДОНСКАЯ", "id": 317 }, "geometry": { "type": "Point", "coordinates": [ 39.5612457, 51.0373104 ] } },
{ "type": "Feature", "properties": { "name": "ПРИШИБ", "id": 318 }, "geometry": { "type": "Point", "coordinates": [ 35.3255762, 47.2587749 ] } },
{ "type": "Feature", "properties": { "name": "РІВНЕ", "id": 319 }, "geometry": { "type": "Point", "coordinates": [ 26.2395398, 50.6276635 ] } },
{ "type": "Feature", "properties": { "name": "РАДЕНСЬКЕ", "id": 320 }, "geometry": { "type": "Point", "coordinates": [ 32.9432851, 46.5650541 ] } },
{ "type": "Feature", "properties": { "name": "РАДЕХІВ", "id": 321 }, "geometry": { "type": "Point", "coordinates": [ 24.6253095, 50.2842251 ] } },
{ "type": "Feature", "properties": { "name": "РАДИВИЛІВ", "id": 322 }, "geometry": { "type": "Point", "coordinates": [ 25.2609255, 50.1190162 ] } },
{ "type": "Feature", "properties": { "name": "РАДУШНА", "id": 323 }, "geometry": { "type": "Point", "coordinates": [ 33.5108646, 47.8240332 ] } },
{ "type": "Feature", "properties": { "name": "РАЙ", "id": 324 }, "geometry": { "type": "Point", "coordinates": [ 37.8608709, 50.3852174 ] } },
{ "type": "Feature", "properties": { "name": "РЕЙТАНОВ", "id": 325 }, "geometry": { "type": "Point", "coordinates": [ 26.3074295, 52.9794756 ] } },
{ "type": "Feature", "properties": { "name": "РЕЧИЦА", "id": 326 }, "geometry": { "type": "Point", "coordinates": [ 30.3934602, 52.3492366 ] } },
{ "type": "Feature", "properties": { "name": "РЕЧНАЯ", "id": 327 }, "geometry": { "type": "Point", "coordinates": [ 94.476579, 56.1524465 ] } },
{ "type": "Feature", "properties": { "name": "РЕШЕТНИКОВО", "id": 328 }, "geometry": { "type": "Point", "coordinates": [ 36.5669456, 56.4494641 ] } },
{ "type": "Feature", "properties": { "name": "РЖЕВУСЬКА", "id": 329 }, "geometry": { "type": "Point", "coordinates": [ 29.3024254, 49.4928187 ] } },
{ "type": "Feature", "properties": { "name": "РОЖДЕСТВО", "id": 330 }, "geometry": { "type": "Point", "coordinates": [ 38.9920161, 52.879555 ] } },
{ "type": "Feature", "properties": { "name": "РОЖНЯТІВ", "id": 331 }, "geometry": { "type": "Point", "coordinates": [ 24.1598992, 49.0002239 ] } },
{ "type": "Feature", "properties": { "name": "РОЗІВКА", "id": 332 }, "geometry": { "type": "Point", "coordinates": [ 37.0627795, 47.3738638 ] } },
{ "type": "Feature", "properties": { "name": "РОКУВАТА", "id": 333 }, "geometry": { "type": "Point", "coordinates": [ 33.4782628, 48.0437124 ] } },
{ "type": "Feature", "properties": { "name": "РОСТОВ-ЗАПАДНЫЙ", "id": 334 }, "geometry": { "type": "Point", "coordinates": [ 39.6114176, 47.248382 ] } },
{ "type": "Feature", "properties": { "name": "РОСТУЩА", "id": 335 }, "geometry": { "type": "Point", "coordinates": [ 35.2832882, 47.8091114 ] } },
{ "type": "Feature", "properties": { "name": "РОТОК", "id": 336 }, "geometry": { "type": "Point", "coordinates": [ 30.1871198, 49.779591 ] } },
{ "type": "Feature", "properties": { "name": "РОЯ", "id": 337 }, "geometry": { "type": "Point", "coordinates": [ 37.3076222, 47.989665 ] } },
{ "type": "Feature", "properties": { "name": "РУБІЖНЕ", "id": 338 }, "geometry": { "type": "Point", "coordinates": [ 38.3746813, 49.0026841 ] } },
{ "type": "Feature", "properties": { "name": "РУДНИЦЯ", "id": 339 }, "geometry": { "type": "Point", "coordinates": [ 28.9344335, 48.2605494 ] } },
{ "type": "Feature", "properties": { "name": "РЫЖКОВИЧИ", "id": 340 }, "geometry": { "type": "Point", "coordinates": [ 30.2922808, 54.1577367 ] } },
{ "type": "Feature", "properties": { "name": "РЯСНА", "id": 341 }, "geometry": { "type": "Point", "coordinates": [ 34.5671057, 48.1816285 ] } },
{ "type": "Feature", "properties": { "name": "СІЛЬ", "id": 342 }, "geometry": { "type": "Point", "coordinates": [ 38.0342144, 48.7153712 ] } },
{ "type": "Feature", "properties": { "name": "САГАЙДАК", "id": 343 }, "geometry": { "type": "Point", "coordinates": [ 33.9818315, 49.7295773 ] } },
{ "type": "Feature", "properties": { "name": "САЛАВАТ", "id": 344 }, "geometry": { "type": "Point", "coordinates": [ 55.9152166, 53.3604377 ] } },
{ "type": "Feature", "properties": { "name": "САМАРІВКА", "id": 345 }, "geometry": { "type": "Point", "coordinates": [ 35.1212045, 48.5405085 ] } },
{ "type": "Feature", "properties": { "name": "САПІЖАНКА", "id": 346 }, "geometry": { "type": "Point", "coordinates": [ 24.3377328, 50.0830893 ] } },
{ "type": "Feature", "properties": { "name": "САРНИ", "id": 347 }, "geometry": { "type": "Point", "coordinates": [ 26.6029321, 51.3387763 ] } },
{ "type": "Feature", "properties": { "name": "САРТАНА", "id": 348 }, "geometry": { "type": "Point", "coordinates": [ 37.5738471, 47.1535949 ] } },
{ "type": "Feature", "properties": { "name": "СВАЛЯВА", "id": 349 }, "geometry": { "type": "Point", "coordinates": [ 22.9879961, 48.5516243 ] } },
{ "type": "Feature", "properties": { "name": "СВАТОВЕ", "id": 350 }, "geometry": { "type": "Point", "coordinates": [ 38.1650529, 49.4089441 ] } },
{ "type": "Feature", "properties": { "name": "СВЕКЛОВИЧНАЯ", "id": 351 }, "geometry": { "type": "Point", "coordinates": [ 35.6877651, 50.7819453 ] } },
{ "type": "Feature", "properties": { "name": "СВЕТОГОРСК", "id": 352 }, "geometry": { "type": "Point", "coordinates": [ 28.8459234, 61.1176937 ] } },
{ "type": "Feature", "properties": { "name": "СЕГЕЖА", "id": 353 }, "geometry": { "type": "Point", "coordinates": [ 34.3025866, 63.7442644 ] } },
{ "type": "Feature", "properties": { "name": "СЕЛЕЩИНА", "id": 354 }, "geometry": { "type": "Point", "coordinates": [ 34.8356067, 49.4675617 ] } },
{ "type": "Feature", "properties": { "name": "СИНЕЛЬНИКОВЕ II", "id": 355 }, "geometry": { "type": "Point", "coordinates": [ 35.5112994, 48.3334677 ] } },
{ "type": "Feature", "properties": { "name": "СИХІВ", "id": 356 }, "geometry": { "type": "Point", "coordinates": [ 24.0742252, 49.787454 ] } },
{ "type": "Feature", "properties": { "name": "СКАЛА-ПОДІЛЬСЬКА", "id": 357 }, "geometry": { "type": "Point", "coordinates": [ 26.2012663, 48.8425458 ] } },
{ "type": "Feature", "properties": { "name": "СКАЛАТ", "id": 358 }, "geometry": { "type": "Point", "coordinates": [ 25.9684424, 49.4190937 ] } },
{ "type": "Feature", "properties": { "name": "СКВИРА", "id": 359 }, "geometry": { "type": "Point", "coordinates": [ 29.656485, 49.7546598 ] } },
{ "type": "Feature", "properties": { "name": "СКНИЛІВ", "id": 360 }, "geometry": { "type": "Point", "coordinates": [ 23.9349374, 49.8210482 ] } },
{ "type": "Feature", "properties": { "name": "СКОРОХОДОВЕ", "id": 361 }, "geometry": { "type": "Point", "coordinates": [ 35.0728169, 49.7795561 ] } },
{ "type": "Feature", "properties": { "name": "СЛОНИМ", "id": 362 }, "geometry": { "type": "Point", "coordinates": [ 25.3434634, 53.0952174 ] } },
{ "type": "Feature", "properties": { "name": "СМОЛЕВИЧИ", "id": 363 }, "geometry": { "type": "Point", "coordinates": [ 28.0568505, 54.0195953 ] } },
{ "type": "Feature", "properties": { "name": "СМЫЧКА", "id": 364 }, "geometry": { "type": "Point", "coordinates": [ 59.9824558, 57.9401492 ] } },
{ "type": "Feature", "properties": { "name": "СНІГУРІВКА", "id": 365 }, "geometry": { "type": "Point", "coordinates": [ 32.7803085, 47.0652857 ] } },
{ "type": "Feature", "properties": { "name": "СНОВСЬК", "id": 366 }, "geometry": { "type": "Point", "coordinates": [ 31.9431418, 51.8141363 ] } },
{ "type": "Feature", "properties": { "name": "СОКАЛЬ", "id": 367 }, "geometry": { "type": "Point", "coordinates": [ 24.2570874, 50.4648285 ] } },
{ "type": "Feature", "properties": { "name": "СОКОРИКИ", "id": 368 }, "geometry": { "type": "Point", "coordinates": [ 28.6419594, 51.019735 ] } },
{ "type": "Feature", "properties": { "name": "СОЛИКАМСК", "id": 369 }, "geometry": { "type": "Point", "coordinates": [ 56.7322241, 59.6332742 ] } },
{ "type": "Feature", "properties": { "name": "СОСНІВКА", "id": 370 }, "geometry": { "type": "Point", "coordinates": [ 24.2631429, 50.2921241 ] } },
{ "type": "Feature", "properties": { "name": "СОФРИНО", "id": 371 }, "geometry": { "type": "Point", "coordinates": [ 37.9305753, 56.1365062 ] } },
{ "type": "Feature", "properties": { "name": "СТАРОВІРІВКА", "id": 372 }, "geometry": { "type": "Point", "coordinates": [ 37.4457704, 49.6782373 ] } },
{ "type": "Feature", "properties": { "name": "СТАРОКОСТЯНТИНІВ I", "id": 373 }, "geometry": { "type": "Point", "coordinates": [ 27.1653412, 49.7528457 ] } },
{ "type": "Feature", "properties": { "name": "СТЕПЯНКА", "id": 374 }, "geometry": { "type": "Point", "coordinates": [ 27.6633243, 53.9147348 ] } },
{ "type": "Feature", "properties": { "name": "СТОЯНІВ", "id": 375 }, "geometry": { "type": "Point", "coordinates": [ 24.6667184, 50.3779309 ] } },
{ "type": "Feature", "properties": { "name": "СТРАБИЧОВО", "id": 376 }, "geometry": { "type": "Point", "coordinates": [ 22.5660436, 48.3876491 ] } },
{ "type": "Feature", "properties": { "name": "СТРИЙ", "id": 377 }, "geometry": { "type": "Point", "coordinates": [ 23.8415948, 49.2596139 ] } },
{ "type": "Feature", "properties": { "name": "СУМИ", "id": 378 }, "geometry": { "type": "Point", "coordinates": [ 34.8085324, 50.9271301 ] } },
{ "type": "Feature", "properties": { "name": "СУМИ-ТОВАРНА", "id": 379 }, "geometry": { "type": "Point", "coordinates": [ 34.8539056, 50.8952061 ] } },
{ "type": "Feature", "properties": { "name": "СУХОЛІСИ", "id": 380 }, "geometry": { "type": "Point", "coordinates": [ 30.3675301, 49.7383797 ] } },
{ "type": "Feature", "properties": { "name": "ТАВРІЙСЬК", "id": 381 }, "geometry": { "type": "Point", "coordinates": [ 35.2780468, 47.4396937 ] } },
{ "type": "Feature", "properties": { "name": "ТАЛЬНЕ", "id": 382 }, "geometry": { "type": "Point", "coordinates": [ 30.7230192, 48.8950816 ] } },
{ "type": "Feature", "properties": { "name": "ТАТЬЯНКА", "id": 383 }, "geometry": { "type": "Point", "coordinates": [ 44.614564, 48.5196195 ] } },
{ "type": "Feature", "properties": { "name": "ТЕРЕЩЕНСЬКА", "id": 384 }, "geometry": { "type": "Point", "coordinates": [ 33.4813767, 51.7641833 ] } },
{ "type": "Feature", "properties": { "name": "ТЕРНОВЕ", "id": 385 }, "geometry": { "type": "Point", "coordinates": [ 36.3507646, 49.8534985 ] } },
{ "type": "Feature", "properties": { "name": "ТЕРНОПІЛЬ", "id": 386 }, "geometry": { "type": "Point", "coordinates": [ 25.6008397, 49.5538981 ] } },
{ "type": "Feature", "properties": { "name": "ТЕТЕРІВ", "id": 387 }, "geometry": { "type": "Point", "coordinates": [ 29.5987946, 50.6985355 ] } },
{ "type": "Feature", "properties": { "name": "ТИХОНОВО", "id": 388 }, "geometry": { "type": "Point", "coordinates": [ 52.2513946, 55.8300083 ] } },
{ "type": "Feature", "properties": { "name": "ТОВСТЕ", "id": 389 }, "geometry": { "type": "Point", "coordinates": [ 25.7229416, 48.8530876 ] } },
{ "type": "Feature", "properties": { "name": "ТОЛОКОННОЕ", "id": 390 }, "geometry": { "type": "Point", "coordinates": [ 36.3581388, 50.4495718 ] } },
{ "type": "Feature", "properties": { "name": "ТОЛЬЯТТИ", "id": 391 }, "geometry": { "type": "Point", "coordinates": [ 49.2951753, 53.5662265 ] } },
{ "type": "Feature", "properties": { "name": "ТОМАШГОРОД", "id": 392 }, "geometry": { "type": "Point", "coordinates": [ 27.0688494, 51.3016498 ] } },
{ "type": "Feature", "properties": { "name": "ТОРОПИЛІВКА", "id": 393 }, "geometry": { "type": "Point", "coordinates": [ 34.6704607, 50.9424637 ] } },
{ "type": "Feature", "properties": { "name": "ТРИКРАТНЕ", "id": 394 }, "geometry": { "type": "Point", "coordinates": [ 31.3054678, 47.7053549 ] } },
{ "type": "Feature", "properties": { "name": "ТРОСТЯНЕЦЬ-СМОРОДИНЕ", "id": 395 }, "geometry": { "type": "Point", "coordinates": [ 34.9685143, 50.4819089 ] } },
{ "type": "Feature", "properties": { "name": "ТРОЯНИ", "id": 396 }, "geometry": { "type": "Point", "coordinates": [ 36.6146044, 46.8787865 ] } },
{ "type": "Feature", "properties": { "name": "УГЛЕУРАЛЬСКАЯ", "id": 397 }, "geometry": { "type": "Point", "coordinates": [ 57.5379569, 58.952247 ] } },
{ "type": "Feature", "properties": { "name": "УЖГОРОД", "id": 398 }, "geometry": { "type": "Point", "coordinates": [ 22.3010574, 48.6094045 ] } },
{ "type": "Feature", "properties": { "name": "УМАНЬ", "id": 399 }, "geometry": { "type": "Point", "coordinates": [ 30.2043543, 48.7327808 ] } },
{ "type": "Feature", "properties": { "name": "УРТААУЛ", "id": 400 }, "geometry": { "type": "Point", "coordinates": [ 69.1402374, 41.1897288 ] } },
{ "type": "Feature", "properties": { "name": "УСТИНІВКА", "id": 401 }, "geometry": { "type": "Point", "coordinates": [ 30.0418189, 49.9500444 ] } },
{ "type": "Feature", "properties": { "name": "ФЕДОРІВКА", "id": 402 }, "geometry": { "type": "Point", "coordinates": [ 35.3145314, 47.0800407 ] } },
{ "type": "Feature", "properties": { "name": "ФЛЮСОВАЯ", "id": 403 }, "geometry": { "type": "Point", "coordinates": [ 60.0536659, 55.0577191 ] } },
{ "type": "Feature", "properties": { "name": "ФУНДУКЛІЇВКА", "id": 404 }, "geometry": { "type": "Point", "coordinates": [ 32.2505219, 48.9744991 ] } },
{ "type": "Feature", "properties": { "name": "ХАЙЧНОРИН", "id": 405 }, "geometry": { "type": "Point", "coordinates": [ 28.5857805, 51.2896884 ] } },
{ "type": "Feature", "properties": { "name": "ХАРКІВ-ПАСАЖИРСЬКИЙ", "id": 406 }, "geometry": { "type": "Point", "coordinates": [ 36.2036094, 49.9895296 ] } },
{ "type": "Feature", "properties": { "name": "ХАРКІВ-СОРТУВАЛЬНИЙ", "id": 407 }, "geometry": { "type": "Point", "coordinates": [ 36.1844877, 50.0256129 ] } },
{ "type": "Feature", "properties": { "name": "ХЕРСОН", "id": 408 }, "geometry": { "type": "Point", "coordinates": [ 32.6046582, 46.6565943 ] } },
{ "type": "Feature", "properties": { "name": "ХЕРСОН-ПОРТ", "id": 409 }, "geometry": { "type": "Point", "coordinates": [ 32.6059305, 46.6265094 ] } },
{ "type": "Feature", "properties": { "name": "ХЛІБОДАРІВКА", "id": 410 }, "geometry": { "type": "Point", "coordinates": [ 37.4105964, 47.4865084 ] } },
{ "type": "Feature", "properties": { "name": "ХМІЛЬНИК", "id": 411 }, "geometry": { "type": "Point", "coordinates": [ 27.9844926, 49.5591468 ] } },
{ "type": "Feature", "properties": { "name": "ХМЕЛЬНИЦЬКИЙ", "id": 412 }, "geometry": { "type": "Point", "coordinates": [ 27.0096156, 49.416223 ] } },
{ "type": "Feature", "properties": { "name": "ХОДОРІВ", "id": 413 }, "geometry": { "type": "Point", "coordinates": [ 24.3090326, 49.4007798 ] } },
{ "type": "Feature", "properties": { "name": "ХОРОСТКІВ", "id": 414 }, "geometry": { "type": "Point", "coordinates": [ 25.9091413, 49.1955336 ] } },
{ "type": "Feature", "properties": { "name": "ХОРТИЦЯ", "id": 415 }, "geometry": { "type": "Point", "coordinates": [ 34.9986144, 47.880574 ] } },
{ "type": "Feature", "properties": { "name": "ХРИПЛИН", "id": 416 }, "geometry": { "type": "Point", "coordinates": [ 24.7417597, 48.8912381 ] } },
{ "type": "Feature", "properties": { "name": "ХРИСТИНІВКА", "id": 417 }, "geometry": { "type": "Point", "coordinates": [ 29.972563, 48.8152213 ] } },
{ "type": "Feature", "properties": { "name": "ЦВІТКОВЕ", "id": 418 }, "geometry": { "type": "Point", "coordinates": [ 31.5292404, 49.1537441 ] } },
{ "type": "Feature", "properties": { "name": "ЧАСІВ ЯР", "id": 419 }, "geometry": { "type": "Point", "coordinates": [ 37.8226169, 48.5937459 ] } },
{ "type": "Feature", "properties": { "name": "ЧЕБАРКУЛЬ", "id": 420 }, "geometry": { "type": "Point", "coordinates": [ 60.3618555, 54.9845731 ] } },
{ "type": "Feature", "properties": { "name": "ЧЕЛЮСКІН", "id": 421 }, "geometry": { "type": "Point", "coordinates": [ 36.1326789, 47.4937658 ] } },
{ "type": "Feature", "properties": { "name": "ЧЕЛЯБИНСК-ЮЖНЫЙ", "id": 422 }, "geometry": { "type": "Point", "coordinates": [ 61.552489, 55.0928545 ] } },
{ "type": "Feature", "properties": { "name": "ЧЕРВОНОГРАД", "id": 423 }, "geometry": { "type": "Point", "coordinates": [ 24.2291158, 50.3968986 ] } },
{ "type": "Feature", "properties": { "name": "ЧЕРКАСИ", "id": 424 }, "geometry": { "type": "Point", "coordinates": [ 32.0502685, 49.4259386 ] } },
{ "type": "Feature", "properties": { "name": "ЧЕРНІВЦІ", "id": 425 }, "geometry": { "type": "Point", "coordinates": [ 25.9301873, 48.3012209 ] } },
{ "type": "Feature", "properties": { "name": "ЧЕРНІВЦІ-ПІВДЕННА", "id": 426 }, "geometry": { "type": "Point", "coordinates": [ 25.9576477, 48.2654505 ] } },
{ "type": "Feature", "properties": { "name": "ЧЕРНІВЦІ-ПІВНІЧНА", "id": 427 }, "geometry": { "type": "Point", "coordinates": [ 25.9183895, 48.3173127 ] } },
{ "type": "Feature", "properties": { "name": "ЧЕРНІГІВ", "id": 428 }, "geometry": { "type": "Point", "coordinates": [ 31.2666074, 51.4856082 ] } },
{ "type": "Feature", "properties": { "name": "ЧОП", "id": 429 }, "geometry": { "type": "Point", "coordinates": [ 22.2054955, 48.4326976 ] } },
{ "type": "Feature", "properties": { "name": "ЧОРНИЙ ОСТРІВ", "id": 430 }, "geometry": { "type": "Point", "coordinates": [ 26.743155, 49.4957679 ] } },
{ "type": "Feature", "properties": { "name": "ЧОРНОЛІСЬКА", "id": 431 }, "geometry": { "type": "Point", "coordinates": [ 32.5198752, 48.7486122 ] } },
{ "type": "Feature", "properties": { "name": "ЧОРНОМОРСЬК-ПОРТ", "id": 432 }, "geometry": { "type": "Point", "coordinates": [ 30.6293165, 46.322273 ] } },
{ "type": "Feature", "properties": { "name": "ЧОРНОМОРСЬКА", "id": 433 }, "geometry": { "type": "Point", "coordinates": [ 30.7600098, 46.8277646 ] } },
{ "type": "Feature", "properties": { "name": "ЧОРНОМОРСЬКА(ДЛЯ ОПЗ)", "id": 434 }, "geometry": { "type": "Point", "coordinates": [ 30.7600098, 46.8277646 ] } },
{ "type": "Feature", "properties": { "name": "ЧОРТКІВ", "id": 435 }, "geometry": { "type": "Point", "coordinates": [ 25.7889598, 49.027189 ] } },
{ "type": "Feature", "properties": { "name": "ЧОРТОМЛИК", "id": 436 }, "geometry": { "type": "Point", "coordinates": [ 34.1283487, 47.6188119 ] } },
{ "type": "Feature", "properties": { "name": "ЧУГУЇВ", "id": 437 }, "geometry": { "type": "Point", "coordinates": [ 36.6690635, 49.8189242 ] } },
{ "type": "Feature", "properties": { "name": "ШАМХАЛ", "id": 438 }, "geometry": { "type": "Point", "coordinates": [ 47.3328097, 43.0533322 ] } },
{ "type": "Feature", "properties": { "name": "ШАРЬЯ", "id": 439 }, "geometry": { "type": "Point", "coordinates": [ 45.5241172, 58.3663749 ] } },
{ "type": "Feature", "properties": { "name": "ШАХУНЬЯ", "id": 440 }, "geometry": { "type": "Point", "coordinates": [ 46.6177933, 57.6719491 ] } },
{ "type": "Feature", "properties": { "name": "ШЕВЧЕНКОВЕ-ПІВДЕННЕ", "id": 441 }, "geometry": { "type": "Point", "coordinates": [ 37.1754704, 49.6943695 ] } },
{ "type": "Feature", "properties": { "name": "ШЕПЕТІВКА", "id": 442 }, "geometry": { "type": "Point", "coordinates": [ 27.0660277, 50.1966332 ] } },
{ "type": "Feature", "properties": { "name": "ШЕПЕТІВКА-ПОДІЛЬСЬКА", "id": 443 }, "geometry": { "type": "Point", "coordinates": [ 27.0766096, 50.163195 ] } },
{ "type": "Feature", "properties": { "name": "ШКЛО-СТАРЖИСЬКА", "id": 444 }, "geometry": { "type": "Point", "coordinates": [ 23.5333837, 49.9757168 ] } },
{ "type": "Feature", "properties": { "name": "ШМАКОВЕ", "id": 445 }, "geometry": { "type": "Point", "coordinates": [ 33.4104502, 47.9641275 ] } },
{ "type": "Feature", "properties": { "name": "ШПИЧКИНЕ", "id": 446 }, "geometry": { "type": "Point", "coordinates": [ 37.5580017, 48.7621409 ] } },
{ "type": "Feature", "properties": { "name": "ШПОЛА", "id": 447 }, "geometry": { "type": "Point", "coordinates": [ 31.3975977, 48.9950661 ] } },
{ "type": "Feature", "properties": { "name": "ЭЛЕКТРОСТАЛЬ", "id": 448 }, "geometry": { "type": "Point", "coordinates": [ 38.4610251, 55.7867818 ] } },
{ "type": "Feature", "properties": { "name": "ЭЛЕКТРОСТАНЦИЯ", "id": 449 }, "geometry": { "type": "Point", "coordinates": [ 61.4147137, 55.1921879 ] } },
{ "type": "Feature", "properties": { "name": "ЮБИЛЕЙНАЯ", "id": 450 }, "geometry": { "type": "Point", "coordinates": [ 63.2222206, 46.0570859 ] } },
{ "type": "Feature", "properties": { "name": "ЯГОДИН", "id": 451 }, "geometry": { "type": "Point", "coordinates": [ 23.8958788, 51.1981905 ] } },
{ "type": "Feature", "properties": { "name": "ЯГОТИН", "id": 452 }, "geometry": { "type": "Point", "coordinates": [ 31.7959299, 50.2376976 ] } },
{ "type": "Feature", "properties": { "name": "ЯМНИЦЯ", "id": 453 }, "geometry": { "type": "Point", "coordinates": [ 24.711063, 48.985446 ] } },
{ "type": "Feature", "properties": { "name": "ЯРЕСЬКИ", "id": 454 }, "geometry": { "type": "Point", "coordinates": [ 33.8831981, 49.8152047 ] } },
{ "type": "Feature", "properties": { "name": "ЯРМОЛИНЦІ", "id": 455 }, "geometry": { "type": "Point", "coordinates": [ 26.8042456, 49.1788641 ] } },
{ "type": "Feature", "properties": { "name": "ЯСІНЯ", "id": 456 }, "geometry": { "type": "Point", "coordinates": [ 24.3539082, 48.2562501 ] } },
{ "type": "Feature", "properties": { "name": "ЯСНА ЗОРЯ", "id": 457 }, "geometry": { "type": "Point", "coordinates": [ 31.7166752, 47.1878051 ] } },
{ "type": "Feature", "properties": { "name": "ОЛЬШАНИЦЯ", "id": 458 }, "geometry": { "type": "Point", "coordinates": [ 30.6488384, 49.6583289 ] } },
{ "type": "Feature", "properties": { "name": "ЄМИЛІВКА", "id": 459 }, "geometry": { "type": "Point", "coordinates": [ 30.5992946, 48.3387709 ] } },
{ "type": "Feature", "properties": { "name": "ІЗЮМ", "id": 460 }, "geometry": { "type": "Point", "coordinates": [ 37.3015645, 49.2160489 ] } },
{ "type": "Feature", "properties": { "name": "ІЗЯСЛАВ", "id": 461 }, "geometry": { "type": "Point", "coordinates": [ 26.8322021, 50.1072855 ] } },
{ "type": "Feature", "properties": { "name": "АЛІЯГА", "id": 462 }, "geometry": { "type": "Point", "coordinates": [ 29.1879977, 45.7903593 ] } },
{ "type": "Feature", "properties": { "name": "АНДРІЯШІВКА", "id": 463 }, "geometry": { "type": "Point", "coordinates": [ 33.3740173, 50.5626218 ] } },
{ "type": "Feature", "properties": { "name": "АНТОНІНИ", "id": 464 }, "geometry": { "type": "Point", "coordinates": [ 26.9860058, 49.7916552 ] } },
{ "type": "Feature", "properties": { "name": "БІЛА ЦЕРКВА", "id": 465 }, "geometry": { "type": "Point", "coordinates": [ 30.1099204, 49.812279 ] } },
{ "type": "Feature", "properties": { "name": "БІЛГОРОД-ДНІСТРОВСЬКИЙ", "id": 466 }, "geometry": { "type": "Point", "coordinates": [ 30.3379051, 46.1848606 ] } },
{ "type": "Feature", "properties": { "name": "БІЛИЙ КОЛОДЯЗЬ", "id": 467 }, "geometry": { "type": "Point", "coordinates": [ 37.1032215, 50.2038772 ] } },
{ "type": "Feature", "properties": { "name": "БІЛОВОДИ", "id": 468 }, "geometry": { "type": "Point", "coordinates": [ 33.4885611, 50.6551858 ] } },
{ "type": "Feature", "properties": { "name": "БІЛОПІЛЛЯ", "id": 469 }, "geometry": { "type": "Point", "coordinates": [ 34.2711546, 51.1420027 ] } },
{ "type": "Feature", "properties": { "name": "БАР", "id": 470 }, "geometry": { "type": "Point", "coordinates": [ 27.7226381, 49.0361007 ] } },
{ "type": "Feature", "properties": { "name": "БАРИШІВКА", "id": 471 }, "geometry": { "type": "Point", "coordinates": [ 31.3165928, 50.3465874 ] } },
{ "type": "Feature", "properties": { "name": "БЕРДИЧІВ", "id": 472 }, "geometry": { "type": "Point", "coordinates": [ 28.6131692, 49.8895725 ] } },
{ "type": "Feature", "properties": { "name": "БЕРЕЗІВКА", "id": 473 }, "geometry": { "type": "Point", "coordinates": [ 30.9419706, 47.192493 ] } },
{ "type": "Feature", "properties": { "name": "БЕРЕЗИНЕ", "id": 474 }, "geometry": { "type": "Point", "coordinates": [ 29.2060337, 46.2303525 ] } },
{ "type": "Feature", "properties": { "name": "БЕРЕЗОВИЦЯ-ОСТРІВ", "id": 475 }, "geometry": { "type": "Point", "coordinates": [ 25.6054131, 49.4908455 ] } },
{ "type": "Feature", "properties": { "name": "БЛИЗНЮКИ", "id": 476 }, "geometry": { "type": "Point", "coordinates": [ 36.5491635, 48.8575963 ] } },
{ "type": "Feature", "properties": { "name": "БОГДАНІВЦІ", "id": 477 }, "geometry": { "type": "Point", "coordinates": [ 27.1410394, 49.3738897 ] } },
{ "type": "Feature", "properties": { "name": "БОГУСЛАВ", "id": 478 }, "geometry": { "type": "Point", "coordinates": [ 30.8856674, 49.5643875 ] } },
{ "type": "Feature", "properties": { "name": "БРІВКИ", "id": 479 }, "geometry": { "type": "Point", "coordinates": [ 29.2124659, 49.9242551 ] } },
{ "type": "Feature", "properties": { "name": "БРАТОЛЮБІВКА", "id": 480 }, "geometry": { "type": "Point", "coordinates": [ 33.8523324, 46.8317135 ] } },
{ "type": "Feature", "properties": { "name": "БРЕСТ-ВОСТОЧНЫЙ", "id": 481 }, "geometry": { "type": "Point", "coordinates": [ 23.7272676, 52.1102695 ] } },
{ "type": "Feature", "properties": { "name": "БРЕСТ-ЦЕНТРАЛЬНЫЙ", "id": 482 }, "geometry": { "type": "Point", "coordinates": [ 23.68103, 52.1000169 ] } },
{ "type": "Feature", "properties": { "name": "БРЯНСК-ЛЬГОВСКИЙ", "id": 483 }, "geometry": { "type": "Point", "coordinates": [ 34.4098788, 53.2135033 ] } },
{ "type": "Feature", "properties": { "name": "БУЗІВКА", "id": 484 }, "geometry": { "type": "Point", "coordinates": [ 35.1748024, 49.1038336 ] } },
{ "type": "Feature", "properties": { "name": "БУРЛУК", "id": 485 }, "geometry": { "type": "Point", "coordinates": [ 37.4026442, 50.0367311 ] } },
{ "type": "Feature", "properties": { "name": "ВІКТОРІЯ", "id": 486 }, "geometry": { "type": "Point", "coordinates": [ 26.6004113, 49.1685209 ] } },
{ "type": "Feature", "properties": { "name": "ВІЛЬНЯНСЬК", "id": 487 }, "geometry": { "type": "Point", "coordinates": [ 35.4381005, 47.9433816 ] } },
{ "type": "Feature", "properties": { "name": "ВАРВАРІВКА", "id": 488 }, "geometry": { "type": "Point", "coordinates": [ 35.9857763, 48.7048015 ] } },
{ "type": "Feature", "properties": { "name": "ВАШКІВЦІ", "id": 489 }, "geometry": { "type": "Point", "coordinates": [ 25.515368, 48.3802171 ] } },
{ "type": "Feature", "properties": { "name": "ВЕЛИКИЙ ТОКМАК", "id": 490 }, "geometry": { "type": "Point", "coordinates": [ 35.719006, 47.2338947 ] } },
{ "type": "Feature", "properties": { "name": "ВЕНДИЧАНИ", "id": 491 }, "geometry": { "type": "Point", "coordinates": [ 27.7798034, 48.6073059 ] } },
{ "type": "Feature", "properties": { "name": "ВЕРХІВЦЕВЕ", "id": 492 }, "geometry": { "type": "Point", "coordinates": [ 34.2374047, 48.482478 ] } },
{ "type": "Feature", "properties": { "name": "ВЕСЕЛИЙ КУТ", "id": 493 }, "geometry": { "type": "Point", "coordinates": [ 29.9919671, 47.105875 ] } },
{ "type": "Feature", "properties": { "name": "ВЕСЕЛИНОВЕ", "id": 494 }, "geometry": { "type": "Point", "coordinates": [ 31.2258647, 47.3625443 ] } },
{ "type": "Feature", "properties": { "name": "ВИГОДА", "id": 495 }, "geometry": { "type": "Point", "coordinates": [ 30.398402, 46.6138209 ] } },
{ "type": "Feature", "properties": { "name": "ВИРИ", "id": 496 }, "geometry": { "type": "Point", "coordinates": [ 34.374762, 51.0212053 ] } },
{ "type": "Feature", "properties": { "name": "ВОРОНОВИЦЯ", "id": 497 }, "geometry": { "type": "Point", "coordinates": [ 28.7116891, 49.1237459 ] } },
{ "type": "Feature", "properties": { "name": "ВРАДІЇВКА", "id": 498 }, "geometry": { "type": "Point", "coordinates": [ 30.5855736, 47.8769232 ] } },
{ "type": "Feature", "properties": { "name": "ГАЛКА", "id": 499 }, "geometry": { "type": "Point", "coordinates": [ 32.1907099, 50.7063106 ] } },
{ "type": "Feature", "properties": { "name": "ГАННІВКА", "id": 500 }, "geometry": { "type": "Point", "coordinates": [ 33.9005619, 49.2368194 ] } },
{ "type": "Feature", "properties": { "name": "ГЛУХІВ", "id": 501 }, "geometry": { "type": "Point", "coordinates": [ 33.9386875, 51.6785322 ] } },
{ "type": "Feature", "properties": { "name": "ГНІВАНЬ", "id": 502 }, "geometry": { "type": "Point", "coordinates": [ 28.3298186, 49.1024097 ] } },
{ "type": "Feature", "properties": { "name": "ГОГОЛЕВЕ", "id": 503 }, "geometry": { "type": "Point", "coordinates": [ 33.8232524, 49.9122851 ] } },
{ "type": "Feature", "properties": { "name": "ГОРБАШІ", "id": 504 }, "geometry": { "type": "Point", "coordinates": [ 28.6823099, 50.4559861 ] } },
{ "type": "Feature", "properties": { "name": "ГОРОДЕНКА-ЗАВОД", "id": 505 }, "geometry": { "type": "Point", "coordinates": [ 25.4762378, 48.6825174 ] } },
{ "type": "Feature", "properties": { "name": "ГОРОДНЯ", "id": 506 }, "geometry": { "type": "Point", "coordinates": [ 31.6389697, 51.914646 ] } },
{ "type": "Feature", "properties": { "name": "ГОРОДОК-ЛЬВІВСЬКИЙ", "id": 507 }, "geometry": { "type": "Point", "coordinates": [ 23.6299844, 49.7891237 ] } },
{ "type": "Feature", "properties": { "name": "ГРАБАРІВКА", "id": 508 }, "geometry": { "type": "Point", "coordinates": [ 32.4052228, 50.3649994 ] } },
{ "type": "Feature", "properties": { "name": "ГУБАРІВКА", "id": 509 }, "geometry": { "type": "Point", "coordinates": [ 35.3748054, 50.1776785 ] } },
{ "type": "Feature", "properties": { "name": "ГУДЫ", "id": 510 }, "geometry": { "type": "Point", "coordinates": [ 25.2654134, 53.9583269 ] } },
{ "type": "Feature", "properties": { "name": "ГУЛЯЙПОЛЕ", "id": 511 }, "geometry": { "type": "Point", "coordinates": [ 36.1650832, 47.6482135 ] } },
{ "type": "Feature", "properties": { "name": "ГУСЯТИН", "id": 512 }, "geometry": { "type": "Point", "coordinates": [ 26.1836905, 49.0733854 ] } },
{ "type": "Feature", "properties": { "name": "ДЕВЛАДОВЕ", "id": 513 }, "geometry": { "type": "Point", "coordinates": [ 33.7541538, 48.1039568 ] } },
{ "type": "Feature", "properties": { "name": "ДЕНГОФІВКА", "id": 514 }, "geometry": { "type": "Point", "coordinates": [ 29.8058779, 49.3078961 ] } },
{ "type": "Feature", "properties": { "name": "ДЕРЕНІВКА", "id": 515 }, "geometry": { "type": "Point", "coordinates": [ 25.7710375, 49.2397576 ] } },
{ "type": "Feature", "properties": { "name": "ДОЧ", "id": 516 }, "geometry": { "type": "Point", "coordinates": [ 32.5788451, 51.3159729 ] } },
{ "type": "Feature", "properties": { "name": "ДРАБОВЕ-БАРЯТИНСЬКЕ", "id": 517 }, "geometry": { "type": "Point", "coordinates": [ 32.3045689, 49.9594826 ] } },
{ "type": "Feature", "properties": { "name": "ЕСМАНЬ", "id": 518 }, "geometry": { "type": "Point", "coordinates": [ 34.0395888, 51.8120314 ] } },
{ "type": "Feature", "properties": { "name": "ЖАШКІВ", "id": 519 }, "geometry": { "type": "Point", "coordinates": [ 30.0973852, 49.2429662 ] } },
{ "type": "Feature", "properties": { "name": "ЖУРАВЛІВКА", "id": 520 }, "geometry": { "type": "Point", "coordinates": [ 28.7203524, 48.6012189 ] } },
{ "type": "Feature", "properties": { "name": "ЗАКОМЕЛЬСЬКА", "id": 521 }, "geometry": { "type": "Point", "coordinates": [ 37.2036331, 49.3769077 ] } },
{ "type": "Feature", "properties": { "name": "ЗАСТАВНА", "id": 522 }, "geometry": { "type": "Point", "coordinates": [ 25.8552378, 48.5336962 ] } },
{ "type": "Feature", "properties": { "name": "ЗАЧЕПИЛІВКА", "id": 523 }, "geometry": { "type": "Point", "coordinates": [ 35.2273293, 49.2137223 ] } },
{ "type": "Feature", "properties": { "name": "ЗВИНЯЧЕ", "id": 524 }, "geometry": { "type": "Point", "coordinates": [ 24.90896, 50.5181031 ] } },
{ "type": "Feature", "properties": { "name": "ЗМІЇВ", "id": 525 }, "geometry": { "type": "Point", "coordinates": [ 36.3702936, 49.7072361 ] } },
{ "type": "Feature", "properties": { "name": "ЗОЛОЧІВ", "id": 526 }, "geometry": { "type": "Point", "coordinates": [ 35.989292, 50.2770252 ] } },
{ "type": "Feature", "properties": { "name": "КІЛЬЧЕНЬ", "id": 527 }, "geometry": { "type": "Point", "coordinates": [ 35.2738605, 48.8790121 ] } },
{ "type": "Feature", "properties": { "name": "КАЗАНКА", "id": 528 }, "geometry": { "type": "Point", "coordinates": [ 32.7630359, 47.8823451 ] } },
{ "type": "Feature", "properties": { "name": "КАЛАНЧАК", "id": 529 }, "geometry": { "type": "Point", "coordinates": [ 33.4684205, 46.2537417 ] } },
{ "type": "Feature", "properties": { "name": "КАЛЬЧИК", "id": 530 }, "geometry": { "type": "Point", "coordinates": [ 37.5980463, 47.303725 ] } },
{ "type": "Feature", "properties": { "name": "КАМКА", "id": 531 }, "geometry": { "type": "Point", "coordinates": [ 31.7804168, 51.8637873 ] } },
{ "type": "Feature", "properties": { "name": "КАПІТАНІВКА", "id": 532 }, "geometry": { "type": "Point", "coordinates": [ 31.699672, 48.9159626 ] } },
{ "type": "Feature", "properties": { "name": "КАПУСТИНЕ", "id": 533 }, "geometry": { "type": "Point", "coordinates": [ 31.5513351, 48.4714491 ] } },
{ "type": "Feature", "properties": { "name": "КАРЛІВКА", "id": 534 }, "geometry": { "type": "Point", "coordinates": [ 35.1274434, 49.4551337 ] } },
{ "type": "Feature", "properties": { "name": "КАРОЛІНА", "id": 535 }, "geometry": { "type": "Point", "coordinates": [ 28.9606416, 48.9260295 ] } },
{ "type": "Feature", "properties": { "name": "КАХОВКА", "id": 536 }, "geometry": { "type": "Point", "coordinates": [ 33.4316191, 46.7530656 ] } },
{ "type": "Feature", "properties": { "name": "КАЧАНІВКА", "id": 537 }, "geometry": { "type": "Point", "coordinates": [ 32.6582765, 50.8895912 ] } },
{ "type": "Feature", "properties": { "name": "КЕГИЧІВКА", "id": 538 }, "geometry": { "type": "Point", "coordinates": [ 35.7679049, 49.2864179 ] } },
{ "type": "Feature", "properties": { "name": "КЗЫЛ-ТУ", "id": 539 }, "geometry": { "type": "Point", "coordinates": [ 72.3631775, 53.6477259 ] } },
{ "type": "Feature", "properties": { "name": "КИРИКІВКА", "id": 540 }, "geometry": { "type": "Point", "coordinates": [ 35.1349108, 50.3434204 ] } },
{ "type": "Feature", "properties": { "name": "КИСЛІВКА", "id": 541 }, "geometry": { "type": "Point", "coordinates": [ 37.911098, 49.6426519 ] } },
{ "type": "Feature", "properties": { "name": "КОВ’ЯГИ", "id": 542 }, "geometry": { "type": "Point", "coordinates": [ 35.5550973, 49.9182649 ] } },
{ "type": "Feature", "properties": { "name": "КОЛОМАК", "id": 543 }, "geometry": { "type": "Point", "coordinates": [ 35.2183742, 49.8552719 ] } },
{ "type": "Feature", "properties": { "name": "КОРСУНЬ", "id": 544 }, "geometry": { "type": "Point", "coordinates": [ 31.3117306, 49.4300971 ] } },
{ "type": "Feature", "properties": { "name": "КОТЮЖАНИ", "id": 545 }, "geometry": { "type": "Point", "coordinates": [ 27.7535211, 48.7882955 ] } },
{ "type": "Feature", "properties": { "name": "КРАСНЕ", "id": 546 }, "geometry": { "type": "Point", "coordinates": [ 24.614684, 49.9168901 ] } },
{ "type": "Feature", "properties": { "name": "КРАСНОПАВЛІВКА", "id": 547 }, "geometry": { "type": "Point", "coordinates": [ 36.3213995, 49.1399494 ] } },
{ "type": "Feature", "properties": { "name": "КРЕМЕНЕЦЬ", "id": 548 }, "geometry": { "type": "Point", "coordinates": [ 25.7098452, 50.1209565 ] } },
{ "type": "Feature", "properties": { "name": "КРОШНЯ", "id": 549 }, "geometry": { "type": "Point", "coordinates": [ 28.6710881, 50.2952605 ] } },
{ "type": "Feature", "properties": { "name": "КУЗЕМІВКА", "id": 550 }, "geometry": { "type": "Point", "coordinates": [ 37.9591065, 49.5208804 ] } },
{ "type": "Feature", "properties": { "name": "КУЛЕВЧА", "id": 551 }, "geometry": { "type": "Point", "coordinates": [ 29.9129682, 46.0402293 ] } },
{ "type": "Feature", "properties": { "name": "ЛАЗІРКИ", "id": 552 }, "geometry": { "type": "Point", "coordinates": [ 32.643631, 50.0955392 ] } },
{ "type": "Feature", "properties": { "name": "ЛЕПЕСІВКА", "id": 553 }, "geometry": { "type": "Point", "coordinates": [ 26.2149478, 49.9554621 ] } },
{ "type": "Feature", "properties": { "name": "ЛИСЯНКА", "id": 554 }, "geometry": { "type": "Point", "coordinates": [ 30.8496998, 49.2659339 ] } },
{ "type": "Feature", "properties": { "name": "ЛОХВИЦЯ", "id": 555 }, "geometry": { "type": "Point", "coordinates": [ 33.4602221, 50.3692105 ] } },
{ "type": "Feature", "properties": { "name": "МЕНА", "id": 556 }, "geometry": { "type": "Point", "coordinates": [ 32.2347591, 51.5323327 ] } },
{ "type": "Feature", "properties": { "name": "МЕЧЕТНА", "id": 557 }, "geometry": { "type": "Point", "coordinates": [ 36.2002664, 47.9835435 ] } },
{ "type": "Feature", "properties": { "name": "МИНСК-ВОСТОЧНЫЙ", "id": 558 }, "geometry": { "type": "Point", "coordinates": [ 27.5857338, 53.8906887 ] } },
{ "type": "Feature", "properties": { "name": "МИРГОРОД", "id": 559 }, "geometry": { "type": "Point", "coordinates": [ 33.630036, 49.9492729 ] } },
{ "type": "Feature", "properties": { "name": "МИРОВА", "id": 560 }, "geometry": { "type": "Point", "coordinates": [ 34.7338548, 47.7704961 ] } },
{ "type": "Feature", "properties": { "name": "МИХАЙЛЕНКИ", "id": 561 }, "geometry": { "type": "Point", "coordinates": [ 28.2933316, 49.9711604 ] } },
{ "type": "Feature", "properties": { "name": "МОГИЛІВ-ПОДІЛЬСЬКИЙ", "id": 562 }, "geometry": { "type": "Point", "coordinates": [ 27.7749534, 48.4577387 ] } },
{ "type": "Feature", "properties": { "name": "МОНАСТИРИЩЕ", "id": 563 }, "geometry": { "type": "Point", "coordinates": [ 29.7127517, 49.0060932 ] } },
{ "type": "Feature", "properties": { "name": "НЕПОЛОКІВЦІ", "id": 564 }, "geometry": { "type": "Point", "coordinates": [ 25.6531805, 48.399721 ] } },
{ "type": "Feature", "properties": { "name": "НЕСВІЧ-ВОЛИНСЬКИЙ", "id": 565 }, "geometry": { "type": "Point", "coordinates": [ 25.1562762, 50.6113436 ] } },
{ "type": "Feature", "properties": { "name": "НИЗИ", "id": 566 }, "geometry": { "type": "Point", "coordinates": [ 34.7640435, 50.7735952 ] } },
{ "type": "Feature", "properties": { "name": "НОВОВЕСЕЛА", "id": 567 }, "geometry": { "type": "Point", "coordinates": [ 34.8803448, 47.025659 ] } },
{ "type": "Feature", "properties": { "name": "НОСІВКА", "id": 568 }, "geometry": { "type": "Point", "coordinates": [ 31.6040816, 50.9028378 ] } },
{ "type": "Feature", "properties": { "name": "ОЛИКА", "id": 569 }, "geometry": { "type": "Point", "coordinates": [ 25.7391396, 50.7833456 ] } },
{ "type": "Feature", "properties": { "name": "ОРІЛЬКА", "id": 570 }, "geometry": { "type": "Point", "coordinates": [ 36.0190212, 48.97458 ] } },
{ "type": "Feature", "properties": { "name": "ОРІХІВСЬКА", "id": 571 }, "geometry": { "type": "Point", "coordinates": [ 35.7841122, 47.5604809 ] } },
{ "type": "Feature", "properties": { "name": "ОРАТІВ", "id": 572 }, "geometry": { "type": "Point", "coordinates": [ 29.3902778, 49.1754984 ] } },
{ "type": "Feature", "properties": { "name": "ОСКЕМЕН 1", "id": 573 }, "geometry": { "type": "Point", "coordinates": [ 82.5639882, 50.0063981 ] } },
{ "type": "Feature", "properties": { "name": "ПІДВОЛОЧИСЬК", "id": 574 }, "geometry": { "type": "Point", "coordinates": [ 26.1408224, 49.5292097 ] } },
{ "type": "Feature", "properties": { "name": "ПАВЛИШ", "id": 575 }, "geometry": { "type": "Point", "coordinates": [ 33.3384905, 48.9117962 ] } },
{ "type": "Feature", "properties": { "name": "ПАВЛОДАР", "id": 576 }, "geometry": { "type": "Point", "coordinates": [ 76.9724264, 52.3004585 ] } },
{ "type": "Feature", "properties": { "name": "ПАВЛОПІЛЛЯ", "id": 577 }, "geometry": { "type": "Point", "coordinates": [ 34.0321544, 47.8711972 ] } },
{ "type": "Feature", "properties": { "name": "ПАРТИЗАНИ", "id": 578 }, "geometry": { "type": "Point", "coordinates": [ 34.7498866, 46.3298811 ] } },
{ "type": "Feature", "properties": { "name": "ПЕРЕЩЕПИНЕ", "id": 579 }, "geometry": { "type": "Point", "coordinates": [ 35.2946992, 49.0280827 ] } },
{ "type": "Feature", "properties": { "name": "ПЕРЕЯСЛАВСЬКА", "id": 580 }, "geometry": { "type": "Point", "coordinates": [ 31.6554583, 50.2645691 ] } },
{ "type": "Feature", "properties": { "name": "ПЕТРОПАВЛІВКА", "id": 581 }, "geometry": { "type": "Point", "coordinates": [ 36.4863459, 48.431527 ] } },
{ "type": "Feature", "properties": { "name": "ПЕЧАНІВКА", "id": 582 }, "geometry": { "type": "Point", "coordinates": [ 27.8004179, 50.0752346 ] } },
{ "type": "Feature", "properties": { "name": "ПИРЯТИН", "id": 583 }, "geometry": { "type": "Point", "coordinates": [ 32.5059328, 50.2381962 ] } },
{ "type": "Feature", "properties": { "name": "ПЛЕТЕНИЙ ТАШЛИК", "id": 584 }, "geometry": { "type": "Point", "coordinates": [ 31.7265281, 48.4610334 ] } },
{ "type": "Feature", "properties": { "name": "ПОЛТАВСКАЯ", "id": 585 }, "geometry": { "type": "Point", "coordinates": [ 38.2194193, 45.3449948 ] } },
{ "type": "Feature", "properties": { "name": "ПОПІЛЬНЯ", "id": 586 }, "geometry": { "type": "Point", "coordinates": [ 29.459432, 49.9444664 ] } },
{ "type": "Feature", "properties": { "name": "ПОПЕЛЮХИ", "id": 587 }, "geometry": { "type": "Point", "coordinates": [ 28.9757, 48.2152283 ] } },
{ "type": "Feature", "properties": { "name": "ПОТАШ", "id": 588 }, "geometry": { "type": "Point", "coordinates": [ 30.3286396, 48.9201992 ] } },
{ "type": "Feature", "properties": { "name": "ПРИВІЛЬНЕ", "id": 589 }, "geometry": { "type": "Point", "coordinates": [ 34.7564735, 48.2268422 ] } },
{ "type": "Feature", "properties": { "name": "ПРИЛУКИ", "id": 590 }, "geometry": { "type": "Point", "coordinates": [ 32.3837717, 50.5819014 ] } },
{ "type": "Feature", "properties": { "name": "ПУТИВЛЬ", "id": 591 }, "geometry": { "type": "Point", "coordinates": [ 33.8453848, 51.2032531 ] } },
{ "type": "Feature", "properties": { "name": "РАУХІВКА", "id": 592 }, "geometry": { "type": "Point", "coordinates": [ 30.8314267, 47.1699103 ] } },
{ "type": "Feature", "properties": { "name": "РАХНИ", "id": 593 }, "geometry": { "type": "Point", "coordinates": [ 28.4720037, 48.7887987 ] } },
{ "type": "Feature", "properties": { "name": "РЕШЕТИЛІВКА", "id": 594 }, "geometry": { "type": "Point", "coordinates": [ 34.1405043, 49.6372958 ] } },
{ "type": "Feature", "properties": { "name": "РОГАНЬ", "id": 595 }, "geometry": { "type": "Point", "coordinates": [ 36.4309472, 49.9020231 ] } },
{ "type": "Feature", "properties": { "name": "РОГАТИН", "id": 596 }, "geometry": { "type": "Point", "coordinates": [ 24.6212989, 49.3994788 ] } },
{ "type": "Feature", "properties": { "name": "РОЖИЩЕ", "id": 597 }, "geometry": { "type": "Point", "coordinates": [ 25.2607231, 50.9096935 ] } },
{ "type": "Feature", "properties": { "name": "РОЗДОРИ", "id": 598 }, "geometry": { "type": "Point", "coordinates": [ 35.7097989, 48.3264613 ] } },
{ "type": "Feature", "properties": { "name": "РОКИТНЕ", "id": 599 }, "geometry": { "type": "Point", "coordinates": [ 30.5073396, 49.6956778 ] } },
{ "type": "Feature", "properties": { "name": "РОМАНКІВЦІ", "id": 600 }, "geometry": { "type": "Point", "coordinates": [ 27.2508238, 48.4962524 ] } },
{ "type": "Feature", "properties": { "name": "РОМНИ", "id": 601 }, "geometry": { "type": "Point", "coordinates": [ 33.4683744, 50.7490916 ] } },
{ "type": "Feature", "properties": { "name": "РОМОДАН", "id": 602 }, "geometry": { "type": "Point", "coordinates": [ 33.3206772, 49.9924227 ] } },
{ "type": "Feature", "properties": { "name": "РУБАНКА", "id": 603 }, "geometry": { "type": "Point", "coordinates": [ 32.9448507, 50.9373922 ] } },
{ "type": "Feature", "properties": { "name": "РЯДОВА", "id": 604 }, "geometry": { "type": "Point", "coordinates": [ 33.5336206, 48.2292598 ] } },
{ "type": "Feature", "properties": { "name": "СІВЕРСЬК", "id": 605 }, "geometry": { "type": "Point", "coordinates": [ 38.0932116, 48.8702118 ] } },
{ "type": "Feature", "properties": { "name": "СІРОГОЗИ", "id": 606 }, "geometry": { "type": "Point", "coordinates": [ 34.3746207, 46.9422792 ] } },
{ "type": "Feature", "properties": { "name": "САВИНЦІ", "id": 607 }, "geometry": { "type": "Point", "coordinates": [ 26.8371332, 49.0898476 ] } },
{ "type": "Feature", "properties": { "name": "САРАТА", "id": 608 }, "geometry": { "type": "Point", "coordinates": [ 29.679012, 46.0156557 ] } },
{ "type": "Feature", "properties": { "name": "САХНОВЩИНА", "id": 609 }, "geometry": { "type": "Point", "coordinates": [ 35.8717721, 49.149898 ] } },
{ "type": "Feature", "properties": { "name": "СВІТЛОВОДСЬК", "id": 610 }, "geometry": { "type": "Point", "coordinates": [ 33.2546666, 49.0459991 ] } },
{ "type": "Feature", "properties": { "name": "СЕМЕНІВКА", "id": 611 }, "geometry": { "type": "Point", "coordinates": [ 32.5815767, 52.203835 ] } },
{ "type": "Feature", "properties": { "name": "СЕНЧА", "id": 612 }, "geometry": { "type": "Point", "coordinates": [ 33.440858, 50.1977227 ] } },
{ "type": "Feature", "properties": { "name": "СЕРДЮКІВКА", "id": 613 }, "geometry": { "type": "Point", "coordinates": [ 31.7985049, 49.0361698 ] } },
{ "type": "Feature", "properties": { "name": "СИГНАЇВКА", "id": 614 }, "geometry": { "type": "Point", "coordinates": [ 31.4977229, 49.0572645 ] } },
{ "type": "Feature", "properties": { "name": "СИНЕЛЬНИКОВЕ I", "id": 615 }, "geometry": { "type": "Point", "coordinates": [ 35.5260622, 48.3145685 ] } },
{ "type": "Feature", "properties": { "name": "СИРОВАТКА", "id": 616 }, "geometry": { "type": "Point", "coordinates": [ 34.8580644, 50.7919062 ] } },
{ "type": "Feature", "properties": { "name": "СЛАВГОРОД-ПІВДЕННИЙ", "id": 617 }, "geometry": { "type": "Point", "coordinates": [ 35.5103467, 48.1252167 ] } },
{ "type": "Feature", "properties": { "name": "СМІЛА", "id": 618 }, "geometry": { "type": "Point", "coordinates": [ 31.8759037, 49.2409694 ] } },
{ "type": "Feature", "properties": { "name": "СОЛОНИЦЬКА", "id": 619 }, "geometry": { "type": "Point", "coordinates": [ 33.0364932, 49.981189 ] } },
{ "type": "Feature", "properties": { "name": "СОРОКА", "id": 620 }, "geometry": { "type": "Point", "coordinates": [ 29.3592287, 49.071476 ] } },
{ "type": "Feature", "properties": { "name": "СУЛА", "id": 621 }, "geometry": { "type": "Point", "coordinates": [ 33.3990654, 50.3989215 ] } },
{ "type": "Feature", "properties": { "name": "СУПРУНІВКА", "id": 622 }, "geometry": { "type": "Point", "coordinates": [ 34.4757432, 49.5893813 ] } },
{ "type": "Feature", "properties": { "name": "СУХОВОЛЯ", "id": 623 }, "geometry": { "type": "Point", "coordinates": [ 26.3814837, 49.9994243 ] } },
{ "type": "Feature", "properties": { "name": "ТАГАНЧА", "id": 624 }, "geometry": { "type": "Point", "coordinates": [ 31.1291564, 49.5701879 ] } },
{ "type": "Feature", "properties": { "name": "ТАЛАЛАЇВКА", "id": 625 }, "geometry": { "type": "Point", "coordinates": [ 33.1412145, 50.8466487 ] } },
{ "type": "Feature", "properties": { "name": "ТЕРЕБОВЛЯ", "id": 626 }, "geometry": { "type": "Point", "coordinates": [ 25.696344, 49.2987415 ] } },
{ "type": "Feature", "properties": { "name": "ТЕТІЇВ", "id": 627 }, "geometry": { "type": "Point", "coordinates": [ 29.7096171, 49.3666694 ] } },
{ "type": "Feature", "properties": { "name": "ТОРСЬКЕ", "id": 628 }, "geometry": { "type": "Point", "coordinates": [ 25.7107156, 48.7575286 ] } },
{ "type": "Feature", "properties": { "name": "ТРОСТЯНЕЦЬ-ПОДІЛЬСЬКИЙ", "id": 629 }, "geometry": { "type": "Point", "coordinates": [ 29.2159039, 48.5144917 ] } },
{ "type": "Feature", "properties": { "name": "ТУРІЙСЬК", "id": 630 }, "geometry": { "type": "Point", "coordinates": [ 24.5327667, 51.0796919 ] } },
{ "type": "Feature", "properties": { "name": "УЛАДІВКА", "id": 631 }, "geometry": { "type": "Point", "coordinates": [ 28.2040475, 49.507372 ] } },
{ "type": "Feature", "properties": { "name": "УЛЯНІВКА", "id": 632 }, "geometry": { "type": "Point", "coordinates": [ 31.6452009, 48.5956196 ] } },
{ "type": "Feature", "properties": { "name": "УСТЬ-КАМЕНОГОРСК", "id": 633 }, "geometry": { "type": "Point", "coordinates": [ 82.6477443, 49.9560618 ] } },
{ "type": "Feature", "properties": { "name": "ФІСАКИ", "id": 634 }, "geometry": { "type": "Point", "coordinates": [ 35.5356218, 47.7244919 ] } },
{ "type": "Feature", "properties": { "name": "ФЕНОЛЬНА", "id": 635 }, "geometry": { "type": "Point", "coordinates": [ 37.8388036, 48.3329687 ] } },
{ "type": "Feature", "properties": { "name": "ХАЩУВАТЕ", "id": 636 }, "geometry": { "type": "Point", "coordinates": [ 29.9584093, 48.3148977 ] } },
{ "type": "Feature", "properties": { "name": "ХОРОЛ", "id": 637 }, "geometry": { "type": "Point", "coordinates": [ 33.2071901, 49.7843504 ] } },
{ "type": "Feature", "properties": { "name": "ЧОРНОРУДКА", "id": 638 }, "geometry": { "type": "Point", "coordinates": [ 29.0271749, 49.8448388 ] } },
{ "type": "Feature", "properties": { "name": "ЧОТИРБОКИ", "id": 639 }, "geometry": { "type": "Point", "coordinates": [ 27.0116356, 50.0275542 ] } },
{ "type": "Feature", "properties": { "name": "ЧУБІВКА", "id": 640 }, "geometry": { "type": "Point", "coordinates": [ 29.583381, 47.6520871 ] } },
{ "type": "Feature", "properties": { "name": "ЧУДНІВ-ВОЛИНСЬКИЙ", "id": 641 }, "geometry": { "type": "Point", "coordinates": [ 28.1438749, 50.0188824 ] } },
{ "type": "Feature", "properties": { "name": "ШАРІВКА", "id": 642 }, "geometry": { "type": "Point", "coordinates": [ 32.7949758, 48.5012759 ] } },
{ "type": "Feature", "properties": { "name": "ШОСТКА", "id": 643 }, "geometry": { "type": "Point", "coordinates": [ 33.4802915, 51.8583567 ] } },
{ "type": "Feature", "properties": { "name": "ЩАСЛИВА", "id": 644 }, "geometry": { "type": "Point", "coordinates": [ 33.3895529, 48.5944312 ] } },
{ "type": "Feature", "properties": { "name": "ЮСКІВЦІ", "id": 645 }, "geometry": { "type": "Point", "coordinates": [ 33.3301785, 50.4698254 ] } },
{ "type": "Feature", "properties": { "name": "ЯКИМІВКА", "id": 646 }, "geometry": { "type": "Point", "coordinates": [ 35.1644085, 46.680507 ] } },
{ "type": "Feature", "properties": { "name": "ЯЛГА", "id": 647 }, "geometry": { "type": "Point", "coordinates": [ 45.1398747, 54.1300857 ] } },
{ "type": "Feature", "properties": { "name": "ЯНОВ-ПОЛЕССКИЙ", "id": 648 }, "geometry": { "type": "Point", "coordinates": [ 25.5520544, 52.1294108 ] } },
{ "type": "Feature", "properties": { "name": "ЯРОШЕНКА", "id": 649 }, "geometry": { "type": "Point", "coordinates": [ 28.2679636, 48.9022636 ] } },
{ "type": "Feature", "properties": { "name": "АЛТАЙСКАЯ", "id": 650 }, "geometry": { "type": "Point", "coordinates": [ 83.9319131, 53.3919078 ] } },
{ "type": "Feature", "properties": { "name": "БАГАЧЕВЕ", "id": 651 }, "geometry": { "type": "Point", "coordinates": [ 31.0459343, 49.017355 ] } },
{ "type": "Feature", "properties": { "name": "БЕЛОВО", "id": 652 }, "geometry": { "type": "Point", "coordinates": [ 86.3132308, 54.4114506 ] } },
{ "type": "Feature", "properties": { "name": "БИРЮЛИНСКАЯ", "id": 653 }, "geometry": { "type": "Point", "coordinates": [ 86.2503703, 55.6437673 ] } },
{ "type": "Feature", "properties": { "name": "БОЧАТЫ", "id": 654 }, "geometry": { "type": "Point", "coordinates": [ 86.2176515, 54.2529981 ] } },
{ "type": "Feature", "properties": { "name": "ГРОДІВКА", "id": 655 }, "geometry": { "type": "Point", "coordinates": [ 37.313787, 48.2272934 ] } },
{ "type": "Feature", "properties": { "name": "ГУКОВО", "id": 656 }, "geometry": { "type": "Point", "coordinates": [ 39.9412787, 48.0499167 ] } },
{ "type": "Feature", "properties": { "name": "ДЕГЕЛЕН", "id": 657 }, "geometry": { "type": "Point", "coordinates": [ 78.507319, 50.7442052 ] } },
{ "type": "Feature", "properties": { "name": "ДОВЖАНСЬКА", "id": 658 }, "geometry": { "type": "Point", "coordinates": [ 39.6514966, 48.0493657 ] } },
{ "type": "Feature", "properties": { "name": "ЕВСИНО", "id": 659 }, "geometry": { "type": "Point", "coordinates": [ 83.3504729, 54.510851 ] } },
{ "type": "Feature", "properties": { "name": "ЕРУНАКОВО", "id": 660 }, "geometry": { "type": "Point", "coordinates": [ 87.1880096, 53.9982772 ] } },
{ "type": "Feature", "properties": { "name": "ЗАБОЙЩИК", "id": 661 }, "geometry": { "type": "Point", "coordinates": [ 86.2001905, 55.5956798 ] } },
{ "type": "Feature", "properties": { "name": "ЗВЕРЕВСКАЯ", "id": 662 }, "geometry": { "type": "Point", "coordinates": [ 40.190605, 48.0463572 ] } },
{ "type": "Feature", "properties": { "name": "ИНСКАЯ", "id": 663 }, "geometry": { "type": "Point", "coordinates": [ 83.1196256, 54.9643598 ] } },
{ "type": "Feature", "properties": { "name": "КАМЕНОЛОМНИ", "id": 664 }, "geometry": { "type": "Point", "coordinates": [ 40.1943306, 47.664826 ] } },
{ "type": "Feature", "properties": { "name": "КАРАГАНДА-УГОЛЬНАЯ", "id": 665 }, "geometry": { "type": "Point", "coordinates": [ 73.1041469, 49.8912513 ] } },
{ "type": "Feature", "properties": { "name": "КРАСНЫЙ КАМЕНЬ", "id": 666 }, "geometry": { "type": "Point", "coordinates": [ 86.5374854, 54.0054563 ] } },
{ "type": "Feature", "properties": { "name": "КРЕМІННЕ", "id": 667 }, "geometry": { "type": "Point", "coordinates": [ 38.2371937, 49.053536 ] } },
{ "type": "Feature", "properties": { "name": "КУРАХІВКА", "id": 668 }, "geometry": { "type": "Point", "coordinates": [ 37.3748838, 48.0367169 ] } },
{ "type": "Feature", "properties": { "name": "КУРГАН", "id": 669 }, "geometry": { "type": "Point", "coordinates": [ 65.3198272, 55.4417447 ] } },
{ "type": "Feature", "properties": { "name": "ЛАТЫШИ", "id": 670 }, "geometry": { "type": "Point", "coordinates": [ 86.1660076, 55.5329766 ] } },
{ "type": "Feature", "properties": { "name": "ЛИХАЯ", "id": 671 },